bydel,barnehage,spot_litenavdeling,spot_storavdeling,barnehage_url,address,latitude,longitude,match_score,matched_official_name,name_match_score,barnehagefakta_url
Alna,Barneslottet barnehage,17,3,https://www.oslo.kommune.no/barnehage/finn-barnehage-i-oslo/barneslottet-barnehage/,"Dr. Dedichens vei 22A, 0675 OSLO",59.924773978523,10.862727820137,1.0,Barneslottet barnehage,1.0000,https://barnehagefakta.no/barnehage/996797864/barneslottet-barnehage
Alna,Frydenlund,16,0,https://www.oslo.kommune.no/barnehage/finn-barnehage-i-oslo/frydenlund-barnehage/,"Dragonstien 95, 1062 OSLO",59.937613731918,10.913579074442,0.97,Frydenlund barnehage,0.5417,https://barnehagefakta.no/barnehage/975317161/frydenlund-barnehage
Alna,Furustien barnehage,10,0,https://www.oslo.kommune.no/barnehage/finn-barnehage-i-oslo/furustien-barnehage/,"Trygve Lies plass 4, 1051 OSLO",59.94087642497,10.8953824569,1.0,Furustien barnehage,1.0000,https://barnehagefakta.no/barnehage/975317145/furustien-barnehage
Alna,Gransbakken,13,5,https://www.oslo.kommune.no/barnehage/finn-barnehage-i-oslo/gransbakken-barnehage/,"Gransdalen 22, 1054 Oslo",59.946355682795,10.900787269952,0.97,Gransbakken barnehage,0.5531,https://barnehagefakta.no/barnehage/893765832/gransbakken-barnehage
Alna,Gransletta barnehage,20,13,https://www.oslo.kommune.no/barnehage/finn-barnehage-i-oslo/gransletta-barnehage/,"Gransdalen 35, 1054 Oslo",59.944490461075,10.897647663349,1.0,Gransletta barnehage,1.0000,https://barnehagefakta.no/barnehage/975317137/gransletta-barnehage
Alna,Haugenstien,12,0,https://www.oslo.kommune.no/barnehage/finn-barnehage-i-oslo/haugenstien-barnehage/,"Gransdalen 20, 1054 Oslo",59.946355682795,10.900787269952,0.97,Haugenstien barnehage,0.5531,https://barnehagefakta.no/barnehage/918871217/haugenstien-barnehage
Alna,Haugerud sentrum barnehage,13,10,https://www.oslo.kommune.no/barnehage/finn-barnehage-i-oslo/haugerud-sentrum-barnehage/,"Haugerudsenteret 45, 0673 Oslo",59.921827531489,10.858048789129,1.0,Haugerud sentrum barnehage,1.0000,https://barnehagefakta.no/barnehage/975291421/haugerud-sentrum-barnehage
Alna,Havnehagen barnehage,9,3,https://www.oslo.kommune.no/barnehage/finn-barnehage-i-oslo/havnehagen-barnehage/,"Lindebergveien 59, 1069 Oslo",59.931820252377,10.879242134167,1.0,Havnehagen barnehage,1.0000,https://barnehagefakta.no/barnehage/992552980/havnehagen-barnehage
Alna,Hellerud Barnehage,8,3,https://www.oslo.kommune.no/barnehage/finn-barnehage-i-oslo/hellerud-barnehage/,"Landeroveien 1, 0672 Oslo",59.915825515533,10.855656172336,1.0,Hellerud Barnehage,1.0000,https://barnehagefakta.no/barnehage/974824299/hellerud-barnehage
Alna,Hellerudtoppen barnehage,3,1,https://www.oslo.kommune.no/barnehage/finn-barnehage-i-oslo/hellerudtoppen-barnehage/,"Hellerudgrenda 52, 0672 Oslo",59.910797109367,10.859893197936,1.0,Hellerudtoppen barnehage,1.0000,https://barnehagefakta.no/barnehage/973483617/hellerudtoppen-barnehage
Alna,Jeriko private barnehage,3,1,https://www.oslo.kommune.no/barnehage/finn-barnehage-i-oslo/jeriko-private-barnehage/,"Jerikoveien 65, 1067 OSLO",59.93508719918,10.888841391222,1.0,Jeriko private barnehage,1.0000,https://barnehagefakta.no/barnehage/989933973/klofterhagen-barnehage-as
Alna,Karihaugen,12,9,https://www.oslo.kommune.no/barnehage/finn-barnehage-i-oslo/karihaugen-barnehage/,"Harald Sohlbergs vei 10, 1064 OSLO",59.9354005,10.9216895,0.97,Karihaugen barnehage,0.5417,https://barnehagefakta.no/barnehage/975297934/karihaugen-barnehage
Alna,Karlstua barnehage,7,1,https://www.oslo.kommune.no/barnehage/finn-barnehage-i-oslo/karlstua-barnehage/,"Hagapynten 5, 0673 OSLO",59.929445708919,10.885643068105,1.0,Karlstua barnehage,1.0000,https://barnehagefakta.no/barnehage/975297950/karlstua-barnehage
Alna,Kløfterhagen barnehage,2,2,https://www.oslo.kommune.no/barnehage/finn-barnehage-i-oslo/klofterhagen-private-barnehage/,"Jerikoveien 65, 1067 OSLO",59.93508719918,10.888841391222,0.97,Kløfterhagen private barnehage,0.7987,https://barnehagefakta.no/barnehage/989933973/klofterhagen-barnehage-as
Alna,Knøttene familiebarnehage,2,0,https://www.oslo.kommune.no/barnehage/finn-barnehage-i-oslo/knottene-familiebarnehage/,"Lindebergåsen 33, 1071 OSLO",59.929349503449,10.87487914372,1.0,Knøttene familiebarnehage,1.0000,https://barnehagefakta.no/barnehage/990726035/knottene-familiebarnehage-bydel-alna-as
Alna,Kurland barnehage,11,2,https://www.oslo.kommune.no/barnehage/finn-barnehage-i-oslo/kurland-barnehage/,"Ulsholtveien 66, 1053 OSLO",59.942025750067,10.8903997391,1.0,Kurland barnehage,1.0000,https://barnehagefakta.no/barnehage/975317129/kurland-barnehage
Alna,Lia barnehage,23,3,https://www.oslo.kommune.no/barnehage/finn-barnehage-i-oslo/lia-barnehage/,"Harald Sohlbergsvei 19, 1064 OSLO",59.937284720013,10.915206862914,1.0,Lia barnehage,1.0000,https://barnehagefakta.no/barnehage/975297764/lia-barnehage
Alna,Lindebergskogen,9,4,https://www.oslo.kommune.no/barnehage/finn-barnehage-i-oslo/lindebergskogen-barnehage/,"Lindebergveien 41, 1069 OSLO",59.93169232785,10.876872593656,0.97,Lindebergskogen barnehage,0.6875,https://barnehagefakta.no/barnehage/975297985/lindebergskogen-barnehage
Alna,Lindebergstua Kanvas-barnehage,10,3,https://www.oslo.kommune.no/barnehage/finn-barnehage-i-oslo/lindebergstua-kanvas-barnehage/,"Lindebergveien 31, 1069 OSLO",59.930560136013,10.878168687015,1.0,Lindebergstua Kanvas-barnehage,1.0000,https://barnehagefakta.no/barnehage/975298809/lindebergstua-kanvas-barnehage
Alna,Linjen barnehage,9,8,https://www.oslo.kommune.no/barnehage/finn-barnehage-i-oslo/linjen-barnehage/,"Haugenstuveien 52, 1084 OSLO",59.951201588083,10.908112950931,1.0,Linjen barnehage,1.0000,https://barnehagefakta.no/barnehage/975298000/linjen-barnehage
Alna,Lohøgda,7,6,https://www.oslo.kommune.no/barnehage/finn-barnehage-i-oslo/lohogda-barnehage/,"Erlends vei 31, 0669 OSLO",59.917298434102,10.841570853271,0.97,Lohøgda barnehage,0.4958,https://barnehagefakta.no/barnehage/975298019/lohogda-barnehage
Alna,Lutvannskollen barnehage,7,5,https://www.oslo.kommune.no/barnehage/finn-barnehage-i-oslo/lutvannskollen-barnehage/,"Ole Reistads vei 37E, 1068 OSLO",59.926176742928,10.878189273646,1.0,Lutvannskollen barnehage,1.0000,https://barnehagefakta.no/barnehage/975317110/lutvannskollen-barnehage
Alna,Læringsverkstedet Bryn estetiske barnehage AS,11,0,https://www.oslo.kommune.no/barnehage/finn-barnehage-i-oslo/laringsverkstedet-bryn-estetiske-barnehage/,"Ole Deviks vei 19, 0666 OSLO",59.916021649246,10.825526509621,0.97,Læringsverkstedet Bryn estetiske barnehage,0.9115,https://barnehagefakta.no/barnehage/974207540/laringsverkstedet-bryn-barnehage
Alna,Læringsverkstedet Haugerudhagan barnehage,6,0,https://www.oslo.kommune.no/barnehage/finn-barnehage-i-oslo/laringsverkstedet-haugerudhagan-barnehage/,"Haugerudhagan 11D, 0673 OSLO",59.919184368306,10.850566360695,1.0,Læringsverkstedet Haugerudhagan barnehage,1.0000,https://barnehagefakta.no/barnehage/973512560/laringsverkstedet-haugerudhagan-barnehage
Alna,Læringsverkstedet Munkebekken Idrettsbarnehage AS,25,0,https://www.oslo.kommune.no/barnehage/finn-barnehage-i-oslo/laringsverkstedet-munkebekken-idrettsbarnehage/,"Munkebekken 292, 1061 OSLO",59.931169749954,10.91434958926,0.97,Læringsverkstedet Munkebekken idrettsbarnehage,0.8955,https://barnehagefakta.no/barnehage/899650352/laringsverkstedet-munkebekken-idrettsbarnehage
Alna,Norlandia Fagerholt BH,20,0,https://www.oslo.kommune.no/barnehage/finn-barnehage-i-oslo/norlandia-fagerholt-barnehage/,"Dr. Dedichens vei 30, 0675 Oslo",59.922941526949,10.866931563102,1.0,Norlandia Fagerholt barnehage,1.0000,https://barnehagefakta.no/barnehage/975297713/norlandia-fagerholt-barnehage
Alna,Norlandia Sørhellinga barnehage,23,2,https://www.oslo.kommune.no/barnehage/finn-barnehage-i-oslo/norlandia-sorhellinga-barnehage/,"Simon Darres vei 49B, 0669 OSLO",59.911980311003,10.833263561827,1.0,Norlandia Sørhellinga Barnehage,1.0000,https://barnehagefakta.no/barnehage/975291766/norlandia-sorhellinga-barnehage
Alna,Norlandia Valhall,17,0,https://www.oslo.kommune.no/barnehage/finn-barnehage-i-oslo/norlandia-valhall-barnehage/,"Vestre haugen 48, 1054 Oslo",59.949593844514,10.89752759806,0.97,Norlandia Valhall barnehage,0.7583,https://barnehagefakta.no/barnehage/984933908/norlandia-valhall-barnehage
Alna,Ospa barnehage,10,9,https://www.oslo.kommune.no/barnehage/finn-barnehage-i-oslo/ospa-barnehage/,"Lindebergåsen 58D, 1068 Oslo",59.93058438381,10.883395587905,1.0,Ospa barnehage,1.0000,https://barnehagefakta.no/barnehage/975298108/ospa-barnehage
Alna,Plassen Barnehage,4,7,https://www.oslo.kommune.no/barnehage/finn-barnehage-i-oslo/plassen-barnehage/,"Jerikoveien 9, 1067 OSLO",59.933259004666,10.882902959098,1.0,Plassen barnehage,1.0000,https://barnehagefakta.no/barnehage/975317102/plassen-barnehage
Alna,Scala Private Barnehage,14,1,https://www.oslo.kommune.no/barnehage/finn-barnehage-i-oslo/scala-private-barnehage/,"Granstangen 50, 1051 OSLO",59.94463304246,10.897423518989,1.0,Scala Private Barnehage,1.0000,https://barnehagefakta.no/barnehage/981169557/scala-private-barnehage-sa
Alna,Smalvollskogen barnehage,6,6,https://www.oslo.kommune.no/barnehage/finn-barnehage-i-oslo/smalvollskogen-barnehage/,"Gunnulvs vei 38, 0669 OSLO",59.918401992935,10.844225894905,1.0,Smalvollskogen barnehage,1.0000,https://barnehagefakta.no/barnehage/975291731/smalvollskogen-barnehage
Alna,Smedbakken FUS bhg,13,0,https://www.oslo.kommune.no/barnehage/finn-barnehage-i-oslo/smedbakken-fus-barnehage/,"Edvard Munchs vei 57, 1063 OSLO",59.93409652833,10.917653971626,1.0,Smedbakken FUS barnehage,1.0000,https://barnehagefakta.no/barnehage/975317099/smedbakken-fus-barnehage-as
Alna,Solfjellet,9,2,https://www.oslo.kommune.no/barnehage/finn-barnehage-i-oslo/solfjellet-barnehage/,"Haugerudveien 93, 0674 OSLO",59.921599943522,10.85953888184,0.97,Solfjellet barnehage,0.5417,https://barnehagefakta.no/barnehage/975316424/solfjellet-barnehage
Alna,STJERNEBLOKKVEIEN PRIVATE BARNEHAGE,1,0,https://www.oslo.kommune.no/barnehage/finn-barnehage-i-oslo/stjerneblokkveien-barnehage/,"Stjerneblokkveien 8, 1083 OSLO",59.950758142248,10.890252459553,0.97,Stjerneblokkveien barnehage,0.8124,https://barnehagefakta.no/barnehage/974832348/stjerneblokkveien-private-barnehage-as
Alna,Stjernemyra,9,5,https://www.oslo.kommune.no/barnehage/finn-barnehage-i-oslo/stjernemyra-barnehage/,"Stjernemyrveien 50, 0673 OSLO",59.92023400285,10.856403262318,0.97,Stjernemyra barnehage,0.5531,https://barnehagefakta.no/barnehage/975298205/stjernemyra-barnehage
Alna,Stubberudlia barnehage,8,5,https://www.oslo.kommune.no/barnehage/finn-barnehage-i-oslo/stubberudlia-barnehage/,"Tvetenveien 235, 0675 OSLO",59.925593735066,10.863573592335,1.0,Stubberudlia barnehage,1.0000,https://barnehagefakta.no/barnehage/875298232/stubberudlia-barnehage
Alna,Teisen vest barnehage,8,0,https://www.oslo.kommune.no/barnehage/finn-barnehage-i-oslo/teisen-vest-barnehage/,"Agmund Bolts vei 24, 0664 Oslo",59.915066547851,10.812076703056,1.0,Teisen vest barnehage,1.0000,https://barnehagefakta.no/barnehage/875016792/teisen-vest-barnehage
Alna,Teisentoppen Frelsesarmeens barnehage i Oslo as,36,10,https://www.oslo.kommune.no/barnehage/finn-barnehage-i-oslo/teisentoppen-barnehage-frelsesarmeen/,"Teisenveien 5A, 0664 Oslo",59.9177478,10.8175138,0.97,"Teisentoppen, Frelsesarmeens barnehage i Oslo",0.9235,https://barnehagefakta.no/barnehage/973111965/teisentoppen-frelsesarmeens-barnehage-i-oslo-as
Alna,Trøste og Bære barnehage,4,1,https://www.oslo.kommune.no/barnehage/finn-barnehage-i-oslo/troste-og-bare-barnehage/,"Jerikoveien 65, 1067 Oslo",59.93508719918,10.888841391222,1.0,Trøste og bære barnehage,1.0000,https://barnehagefakta.no/barnehage/980287459/troste-og-bare-barnehage-nuf
Alna,Vassenga FUS barnehage,18,0,https://www.oslo.kommune.no/barnehage/finn-barnehage-i-oslo/vassenga-fus-barnehage/,"Nåkkves vei 7, 0670 OSLO",59.915110107363,10.840698346665,1.0,Vassenga FUS barnehage,1.0000,https://barnehagefakta.no/barnehage/917192715/vassenga-fus-barnehage-as
Bjerke,BarnehagenVår Sofus,10,0,https://www.oslo.kommune.no/barnehage/finn-barnehage-i-oslo/barnehagen-var-sofus/,"Økernveien 228, 0584 OSLO",59.940900529097,10.818391243106,1.0,"Barnehagenvår, Sofus",1.0000,https://barnehagefakta.no/barnehage/973761773/barnehagenvar-sofus-as
Bjerke,Bevern Barnehage SA,0,7,https://www.oslo.kommune.no/barnehage/finn-barnehage-i-oslo/bevern-barnehage/,"Beverveien 27, 0596 OSLO",59.942601025564,10.849186119976,0.97,Bevern barnehage,0.8362,https://barnehagefakta.no/barnehage/976599136/bevern-barnehage-sa-samvirkeforetak
Bjerke,Bjerkedalen Barnehage,14,0,https://www.oslo.kommune.no/barnehage/finn-barnehage-i-oslo/bjerkedalen-barnehage/,"Refstadveien 71, 0589 OSLO",59.939782617672,10.822599245744,1.0,Bjerkedalen barnehage,1.0000,https://barnehagefakta.no/barnehage/975325075/bjerkedalen-barnehage
Bjerke,Bredtvet,6,9,https://www.oslo.kommune.no/barnehage/finn-barnehage-i-oslo/bredtvet-barnehage/,"Bredtvetveien 14, 0950 OSLO",59.947103204634,10.858603981049,0.97,Bredtvet barnehage,0.5135,https://barnehagefakta.no/barnehage/975297683/bredtvet-barnehage
Bjerke,Brobekk barnehage,9,0,https://www.oslo.kommune.no/barnehage/finn-barnehage-i-oslo/brobekk-barnehage/,"Refstadsvingen 16, 0589 OSLO",59.942769757422,10.818314599231,1.0,Brobekk barnehage,1.0000,https://barnehagefakta.no/barnehage/988592846/brobekk-barnehage
Bjerke,Espira Spirea barnehage,14,1,https://www.oslo.kommune.no/barnehage/finn-barnehage-i-oslo/espira-spirea-barnehage/,"Spireaveien 14 D, 0580 OSLO",59.933063,10.800519,1.0,Espira Spirea barnehage,1.0000,https://barnehagefakta.no/barnehage/912267334/espira-spirea-barnehage
Bjerke,Kilden barnehage,30,0,https://www.oslo.kommune.no/barnehage/finn-barnehage-i-oslo/kilden-barnehage/,"Kildeveien 42, 0591 Oslo",59.948197,10.818621,1.0,Kilden barnehage,1.0000,https://barnehagefakta.no/barnehage/921391234/kilden-barnehage
Bjerke,Kolåsbakken barnehage,13,4,https://www.oslo.kommune.no/barnehage/finn-barnehage-i-oslo/kolasbakken-barnehage/,"Rødbergveien 68, 0593 OSLO",59.945341041591,10.83046856255,1.0,Kolåsbakken barnehage,1.0000,https://barnehagefakta.no/barnehage/980918874/kolasbakken-barnehage-sa
Bjerke,Linderud Gård,15,0,https://www.oslo.kommune.no/barnehage/finn-barnehage-i-oslo/linderud-gard-barnehage/,"Erich Mogensøns vei 40, 0594 OSLO",59.942016607615,10.835727356092,0.97,Linderud gård barnehage,0.7306,https://barnehagefakta.no/barnehage/975297993/linderud-gard-barnehage
Bjerke,Linderud Gård barnehage,14,0,https://www.oslo.kommune.no/barnehage/finn-barnehage-i-oslo/linderud-gard-barnehage/,"Erich Mogensøns vei 40, 0594 OSLO",59.942016607615,10.835727356092,1.0,Linderud gård barnehage,1.0000,https://barnehagefakta.no/barnehage/975297993/linderud-gard-barnehage
Bjerke,Lunden barnehage,7,0,https://www.oslo.kommune.no/barnehage/finn-barnehage-i-oslo/lunden-barnehage/,"Lunden 22, 0598 OSLO",59.938656939371,10.83189007007,1.0,Lunden barnehage,1.0000,https://barnehagefakta.no/barnehage/986792341/lunden-barnehage-as
Bjerke,Lykketrollet familiebarnehage Anna Rogstads vei,2,0,https://www.oslo.kommune.no/barnehage/finn-barnehage-i-oslo/lykketrollet-familiebarnehage-anna-rogstadsvei/,"Anna Rogstads vei 43B, 0592 OSLO",59.949987938616,10.830223465469,0.818,Lykketrollet familiebarnehage (Anna Rogstadsvei),0.8191,https://barnehagefakta.no/barnehage/992781556/lykketrollet-familiebarnehage-avdeling-anna-rogstads-vei-as
Bjerke,Lykketrollet familiebarnehage Eltonveien,3,0,https://www.oslo.kommune.no/barnehage/finn-barnehage-i-oslo/lykketrollet-familiebarnehage-eltonveien/,"Eltonveien 8, 0586 OSLO",59.939902015619,10.800830052604,1.0,Lykketrollet familiebarnehage (Eltonveien),1.0000,https://barnehagefakta.no/barnehage/992781521/lykketrollet-familiebarnehage-avdeling-eltonveien-as
Bjerke,Lykketrollet familiebarnehage Kildeveien,1,0,https://www.oslo.kommune.no/barnehage/finn-barnehage-i-oslo/lykketrollet-familiebarnehage-kildeveien/,"Kildeveien 10, 0590 OSLO",59.947800866914,10.805788405538,1.0,Lykketrollet familiebarnehage (Kildeveien),1.0000,https://barnehagefakta.no/barnehage/893149732/lykketrollet-familiebarnehage-avdeling-kildeveien-as
Bjerke,Lykketrollet familiebarnehage Krokliveien,3,0,https://www.oslo.kommune.no/barnehage/finn-barnehage-i-oslo/lykketrollet-familiebarnehage-krokliveien/,"Krokliveien 9A, 0584 OSLO",59.937700215909,10.817947509916,1.0,Lykketrollet familiebarnehage (Krokliveien),1.0000,https://barnehagefakta.no/barnehage/912071561/lykketrollet-familiebarnehage-avdeling-krokliveien-as
Bjerke,Lykketrollet familiebarnehage Åkerøveien,3,0,https://www.oslo.kommune.no/barnehage/finn-barnehage-i-oslo/lykketrollet-familiebarnehage-akeroveien/,"Åkerøveien 2, 0586 OSLO",59.935827810727,10.79464907113,1.0,Lykketrollet familiebarnehage (Åkerøveien),1.0000,https://barnehagefakta.no/barnehage/992097965/lykketrollet-familiebarnehage-avdeling-akeroveien-as
Bjerke,Læringsverkstedet Bjerke Panorama barnehage,13,0,https://www.oslo.kommune.no/barnehage/finn-barnehage-i-oslo/laringsverkstedet-bjerke-panorama/,"Refstadveien 34, 0589 OSLO",59.94142034404,10.808019141864,0.97,Læringsverkstedet Bjerke Panorama,0.8420,https://barnehagefakta.no/barnehage/911944812/laringsverkstedet-bjerke-panorama-barnehage
Bjerke,Læringsverkstedet Årvollveien barnehage AS,8,2,https://www.oslo.kommune.no/barnehage/finn-barnehage-i-oslo/laringsverkstedet-arvollveien-barnehage/,"Bård skolemesters vei 30, 0590 OSLO",59.945691972387,10.813515395261,0.97,Læringsverkstedet Årvollveien barnehage,0.8926,https://barnehagefakta.no/barnehage/976767675/laringsverkstedet-arvollveien-barnehage
Bjerke,Madamløkken,6,1,https://www.oslo.kommune.no/barnehage/finn-barnehage-i-oslo/madamlokken-barnehage/,"Erich Mogensøns vei 40, 0594 OSLO",59.942016607615,10.835727356092,0.97,Madamløkken barnehage,0.5531,https://barnehagefakta.no/barnehage/980687244/madamlokken-barnehage
Bjerke,Maurtua familiebarnehage avd Edgren,1,0,https://www.oslo.kommune.no/barnehage/finn-barnehage-i-oslo/maurtua-familiebarnehage-avd-edgren/,"Kryssveien 10B, 0583 OSLO",59.93607877229,10.819594884713,1.0,"Maurtua familiebarnehage, avd. Edgren",1.0000,https://barnehagefakta.no/barnehage/888496092/maurtua-familiebarnehage
Bjerke,MAURTUA PRIVATE FAMILIEBARNEHAGE AS AVD,4,0,https://www.oslo.kommune.no/barnehage/finn-barnehage-i-oslo/maurtua-private-familiebarnehage-avd-beverveien/,"Beverveien 25, 0596 OSLO",59.942814213247,10.848714637772,0.7775,"Maurtua Private familiebarnehage, avd. Beverveien",0.7938,https://barnehagefakta.no/barnehage/987337737/maurtua-private-familiebarnehage-as-avd-beverveien
Bjerke,MAURTUA PRIVATE FAMILIEBARNEHAGE AS AVD,4,0,https://www.oslo.kommune.no/barnehage/finn-barnehage-i-oslo/maurtua-private-familiebarnehage-avd-beverveien/,"Beverveien 25, 0596 OSLO",59.942814213247,10.848714637772,0.7775,"Maurtua Private familiebarnehage, avd. Beverveien",0.7938,https://barnehagefakta.no/barnehage/987337737/maurtua-private-familiebarnehage-as-avd-beverveien
Bjerke,MAURTUA PRIVATE FAMILIEBARNEHAGE AS AVD,3,0,https://www.oslo.kommune.no/barnehage/finn-barnehage-i-oslo/maurtua-private-familiebarnehage-avd-beverveien/,"Beverveien 25, 0596 OSLO",59.942814213247,10.848714637772,0.7775,"Maurtua Private familiebarnehage, avd. Beverveien",0.7938,https://barnehagefakta.no/barnehage/987337737/maurtua-private-familiebarnehage-as-avd-beverveien
Bjerke,Norlandia Årvollskogen barnehage,9,3,https://www.oslo.kommune.no/barnehage/finn-barnehage-i-oslo/arvollskogen-barnehage/,"Årvollveien 58V, 0590 Oslo",59.952225315017,10.817811924123,1.0,Norlandia Årvollskogen barnehage,1.0000,https://barnehagefakta.no/barnehage/988730491/arvollskogen-barnehage-as
Bjerke,Nybyen barnehage,17,3,https://www.oslo.kommune.no/barnehage/finn-barnehage-i-oslo/nybyen-barnehage/,"Mørtelverksbakken 29, 0580 Oslo",59.936600976642,10.806042075889,1.0,Nybyen barnehage,1.0000,https://barnehagefakta.no/barnehage/925106828/nybyen-barnehage
Bjerke,Orelia,6,1,https://www.oslo.kommune.no/barnehage/finn-barnehage-i-oslo/orelia-barnehage/,"Oreliveien 40, 0584 Oslo",59.936251776678,10.814861291649,0.97,Orelia barnehage,0.4750,https://barnehagefakta.no/barnehage/975291618/orelia-barnehage
Bjerke,Refstad barnehage,17,0,https://www.oslo.kommune.no/barnehage/finn-barnehage-i-oslo/refstad-barnehage/,"Ribstonveien 35, 0586 OSLO",59.936040909321,10.800101631749,1.0,Refstad barnehage,1.0000,https://barnehagefakta.no/barnehage/975316645/refstad-barnehage
Bjerke,Risløkka Familiebarnehage,4,0,https://www.oslo.kommune.no/barnehage/finn-barnehage-i-oslo/rislokka-familiebarnehage/,"Risløkkveien 67B, 0583 Oslo",59.933127120809,10.823907359331,1.0,Risløkka familiebarnehage,1.0000,https://barnehagefakta.no/barnehage/999050603/rislokka-familiebarnehage-cemile-algunerhan
Bjerke,Sandbakken barnehage,8,4,https://www.oslo.kommune.no/barnehage/finn-barnehage-i-oslo/sandbakken-barnehage/,"Selvbyggerveien 130, 0591 OSLO",59.94481735491,10.828076483148,1.0,Sandbakken barnehage,1.0000,https://barnehagefakta.no/barnehage/975298159/sandbakken-barnehage
Bjerke,Sisiktoppen,12,0,https://www.oslo.kommune.no/barnehage/finn-barnehage-i-oslo/sisiktoppen-barnehage/,"Statsråd Mathiesens vei 16, 0598 OSLO",59.939061329836,10.832520978488,0.97,Sisiktoppen barnehage,0.5531,https://barnehagefakta.no/barnehage/975316653/sisiktoppen-barnehage
Bjerke,Skauen barnehage,3,0,https://www.oslo.kommune.no/barnehage/finn-barnehage-i-oslo/skauen-barnehage/,"Selvbyggerveien 141, 0591 OSLO",59.949548314319,10.822924177849,1.0,Skauen barnehage,1.0000,https://barnehagefakta.no/barnehage/875009532/skauen-barnehage-sa
Bjerke,Skrubbelund barnehage,14,0,https://www.oslo.kommune.no/barnehage/finn-barnehage-i-oslo/skrubbelund-barnehage/,"Veitvetveien 32, 0596 OSLO",59.942998221986,10.85352267148,1.0,Skrubbelund barnehage,1.0000,https://barnehagefakta.no/barnehage/988592765/skrubbelund-barnehage
Bjerke,Skytterbanen FUS bhg,26,0,https://www.oslo.kommune.no/barnehage/finn-barnehage-i-oslo/skytterbanen-fus-barnehage/,"Årvollveien 50 G, 0590 OSLO",59.9532338,10.8188236,1.0,Skytterbanen FUS barnehage,1.0000,https://barnehagefakta.no/barnehage/993891525/skytterbanen-fus-barnehage-as
Bjerke,Sletta barnehage,14,0,https://www.oslo.kommune.no/barnehage/finn-barnehage-i-oslo/sletta-barnehage/,"Selvbyggerveien 23B, 0591 OSLO",59.94975498437,10.821096613921,1.0,Sletta barnehage,1.0000,https://barnehagefakta.no/barnehage/975291723/sletta-barnehage
Bjerke,Tonsenhagen barnehage as,4,3,https://www.oslo.kommune.no/barnehage/finn-barnehage-i-oslo/tonsenhagen-barnehage/,"Selvbyggerveien 102B, 0591 Oslo",59.945360818261,10.825152358178,0.97,Tonsenhagen barnehage,0.8467,https://barnehagefakta.no/barnehage/975006271/tonsenhagen-barnehage-as
Bjerke,Ulvenkroken barnehage,0,12,https://www.oslo.kommune.no/barnehage/finn-barnehage-i-oslo/ulvenkroken-barnehage/,"Ulvenveien 88, 0581 OSLO",59.92657393041203,10.810688755336722,1.0,Ulvenkroken barnehage,1.0000,https://barnehagefakta.no/barnehage/936179029/ulvenkroken-barnehage
Bjerke,Ulvenparken barnehage,17,0,https://www.oslo.kommune.no/barnehage/finn-barnehage-i-oslo/ulvenparken-barnehage/,"Selma Ellefsens vei 5a, 0581 OSLO",59.925481702153,10.810370580313,1.0,Ulvenparken barnehage,1.0000,https://barnehagefakta.no/barnehage/826458372/ulvenparken-barnehage
Bjerke,Veksthusfløtten Familiebarnehage AS,3,0,https://www.oslo.kommune.no/barnehage/finn-barnehage-i-oslo/veksthusflotten-familiebarnehage-algunerhan/,"Veksthusfløtten 11, 0594 OSLO",59.940207552681,10.831474400768,0.7417,"Veksthusfløtten familiebarnehage, Algunerhan",0.7545,https://barnehagefakta.no/barnehage/987646705/veksthusflotten-familiebarnehage-as
Bjerke,Vollebekk barnehage,27,11,https://www.oslo.kommune.no/barnehage/finn-barnehage-i-oslo/vollebekk-barnehage/,"Lunden 51, 0598 OSLO",59.937700958734,10.829002094999,1.0,Vollebekk barnehage,1.0000,https://barnehagefakta.no/barnehage/922080658/vollebekk-barnehage
Bjerke,Årvoll barnehage,6,0,https://www.oslo.kommune.no/barnehage/finn-barnehage-i-oslo/arvoll-barnehage/,"Bård Skolemesters vei 20B, 0590 Oslo",59.945624596184,10.811882503639,1.0,Årvoll barnehage,1.0000,https://barnehagefakta.no/barnehage/975291847/arvoll-barnehage
Bjerke,Økern barnehage,7,5,https://www.oslo.kommune.no/barnehage/finn-barnehage-i-oslo/okern-barnehage/,"Økernveien 153, 0580 Oslo",59.931991966833,10.808508081528,1.0,Økern barnehage,1.0000,https://barnehagefakta.no/barnehage/975316661/okern-barnehage
Bjerke,Økernly barnehage,15,5,https://www.oslo.kommune.no/barnehage/finn-barnehage-i-oslo/okernly-barnehage/,"Økern Torgvei 7B, 0580 Oslo",59.933474509884,10.807155269643,1.0,Økernly barnehage,1.0000,https://barnehagefakta.no/barnehage/997571673/okernly-barnehage-as
Frogner,Aker brygge Barnehage,5,0,https://www.oslo.kommune.no/barnehage/finn-barnehage-i-oslo/norlandia-aker-brygge-barnehage/,"Bryggetorget 19, 0250 Oslo",59.909756870884,10.723798606552,0.7875,Norlandia Aker Brygge barnehage,0.7067,https://barnehagefakta.no/barnehage/927384973/norlandia-aker-brygge-barnehage
Frogner,Aker brygge barnehage,5,0,https://www.oslo.kommune.no/barnehage/finn-barnehage-i-oslo/norlandia-aker-brygge-barnehage/,"Bryggetorget 19, 0250 Oslo",59.909756870884,10.723798606552,0.7875,Norlandia Aker Brygge barnehage,0.7067,https://barnehagefakta.no/barnehage/927384973/norlandia-aker-brygge-barnehage
Frogner,Amigos Abrakadabra familiebarnehage,0,0,https://www.oslo.kommune.no/barnehage/finn-barnehage-i-oslo/amigos-abrakadabra-familiebarnehage/,"Løkkegangen 2, 0251 OSLO",59.911525858837,10.7227260443,1.0,Amigos Abrakadabra familiebarnehage,1.0000,https://barnehagefakta.no/barnehage/992851325/amigos-abrakadabra-familiebarnehage
Frogner,Amigos Tornerose familiebarnehage,2,0,https://www.oslo.kommune.no/barnehage/finn-barnehage-i-oslo/amigos-tornerose-familiebarnehage/,"Frognerveien 47, 0266 OSLO",59.920828126116,10.707449313925,1.0,Amigos Tornerose familiebarnehage,1.0000,https://barnehagefakta.no/barnehage/896646982/amigos-tornerose-familiebarnehage
Frogner,Ankerhagen barnehage SA,9,0,https://www.oslo.kommune.no/barnehage/finn-barnehage-i-oslo/ankerhagen-andelsbarnehage-ba/,"Observatoriegata 6, 0254 OSLO",59.913348174111,10.721076638672,0.97,Ankerhagen barnehage,0.8450,https://barnehagefakta.no/barnehage/977521386/ankerhagen-barnehage-sa
Frogner,Bergebo barnehage,4,10,https://www.oslo.kommune.no/barnehage/finn-barnehage-i-oslo/bergebo-barnehage/,"Huk aveny 57, 0287 OSLO",59.90042918933,10.680090162233,1.0,Bergebo barnehage,1.0000,https://barnehagefakta.no/barnehage/975297659/bergebo-barnehage
Frogner,Betha Thoirsen Kanvas-barnehage,20,4,https://www.oslo.kommune.no/barnehage/finn-barnehage-i-oslo/betha-thorsens-kanvas-barnehage/,"Drammensveien 33A, 0271 OSLO",59.913976041421,10.714523554663,0.839,Betha Thorsens Kanvas-barnehage,0.7423,https://barnehagefakta.no/barnehage/993800007/betha-thorsens-kanvas-barnehage-drift
Frogner,Bygården barnehage,5,0,https://www.oslo.kommune.no/barnehage/finn-barnehage-i-oslo/bygarden-barnehage/,"Welhavens gate 19, 0350 OSLO",59.920933974191,10.731015438679,1.0,Bygården barnehage,1.0000,https://barnehagefakta.no/barnehage/984929978/bygarden-barnehage
Frogner,Den Franske Skolen,0,56,https://www.oslo.kommune.no/barnehage/finn-barnehage-i-oslo/den-franske-barnehagen-i-oslo/,"Skovveien 9, 0257 OSLO",59.917017972767,10.717288474141,1.0,Lycee Francais René Cassin – Den franske barnehagen i Oslo,0.2810,https://barnehagefakta.no/barnehage/932713195/lfo-maternelle-as
Frogner,Fjordbyen barnehage,7,0,https://www.oslo.kommune.no/barnehage/finn-barnehage-i-oslo/fjordbyen-barnehage/,"Munkedamsveien 62, 0270 OSLO",59.912029,10.718587,1.0,Fjordbyen barnehage,1.0000,https://barnehagefakta.no/barnehage/914419417/fjordbyen-barnehage-as
Frogner,Fredriksborg,3,0,https://www.oslo.kommune.no/barnehage/finn-barnehage-i-oslo/fredriksborg-familiebarnehage/,"Fredriksborgveien 18, 0286 OSLO",59.903068270532,10.687513117117,0.5555,Fredriksborg familiebarnehage,0.5970,https://barnehagefakta.no/barnehage/994790463/fredriksborg-familiebarnehage
Frogner,Fridheim barnehage A/S,12,9,https://www.oslo.kommune.no/barnehage/finn-barnehage-i-oslo/fridheim-barnehage/,"Professor Dahls gate 29, 0353 OSLO",59.92403,10.716654,0.76,Fridheim barnehage,0.7700,https://barnehagefakta.no/barnehage/974204762/fridheim-barnehage-as
Frogner,Frogner Barnehage,5,0,https://www.oslo.kommune.no/barnehage/finn-barnehage-i-oslo/frogner-barnehage/,"Professor Dahls gate 44, 0260 OSLO",59.924973,10.712438,1.0,Frogner barnehage,1.0000,https://barnehagefakta.no/barnehage/975016684/frogner-barnehage
Frogner,Frogner International Pre-School,0,18,https://www.oslo.kommune.no/barnehage/finn-barnehage-i-oslo/frogner-international-pre-school/,"Fritzners gate 15, 0264 OSLO",59.916948588455,10.705336052092,1.0,Frogner International Pre-School,1.0000,https://barnehagefakta.no/barnehage/974183455/frogner-international-pre-school
Frogner,Frognerkilen barnehage,12,0,https://www.oslo.kommune.no/barnehage/finn-barnehage-i-oslo/frognerkilen-barnehage/,"Gange-Rolvs gate 3, 0273 OSLO",59.915905827999,10.699147352704,1.0,Frognerkilen barnehage,1.0000,https://barnehagefakta.no/barnehage/972179337/frognerkilen-barnehage
Frogner,Godbiten,0,0,https://www.oslo.kommune.no/barnehage/finn-barnehage-i-oslo/godbiten-barnehage/,"Holmboes gate 4, 0357 Oslo",59.925264,10.721488,0.97,Godbiten barnehage,0.5135,https://barnehagefakta.no/barnehage/984037562/godbiten-barnehage
Frogner,Gydas vei barnehage,11,4,https://www.oslo.kommune.no/barnehage/finn-barnehage-i-oslo/gydas-vei-barnehage/,"Gydas vei 14, 0363 Oslo",59.933609584048,10.715676523791,1.0,Gydas Vei barnehage,1.0000,https://barnehagefakta.no/barnehage/979587910/gydas-vei-barnehage
Frogner,Hamna barnehage,11,1,https://www.oslo.kommune.no/barnehage/finn-barnehage-i-oslo/hamna-barnehage/,"Professor Dahls gate 30 B, 0260 Oslo",59.923512962748,10.717176860832,1.0,Hamna barnehage,1.0000,https://barnehagefakta.no/barnehage/975297829/hamna-barnehage
Frogner,Hegdehaugen barnehage,11,0,https://www.oslo.kommune.no/barnehage/finn-barnehage-i-oslo/hegdehaugen-barnehage/,"Professor Dahls gate 36, 0260 Oslo",59.9237734084,10.714417188152,1.0,Hegdehaugen barnehage,1.0000,https://barnehagefakta.no/barnehage/875291432/hegdehaugen-barnehage
Frogner,Hjelmsgate barnehage,9,0,https://www.oslo.kommune.no/barnehage/finn-barnehage-i-oslo/hjelmsgate-barnehage/,"Hjelms gate 3, 0355 Oslo",59.924989453713,10.721726129821,1.0,Hjelmsgate barnehage,1.0000,https://barnehagefakta.no/barnehage/975297861/hjelmsgate-barnehage
Frogner,Julius barnehage,8,0,https://www.oslo.kommune.no/barnehage/finn-barnehage-i-oslo/julius-barnehage/,"Middelthuns gate 17b, 0368 Oslo",59.92798531264,10.711748327412,1.0,Julius barnehage,1.0000,https://barnehagefakta.no/barnehage/930776807/julius-barnehage
Frogner,Kongeskogen,12,1,https://www.oslo.kommune.no/barnehage/finn-barnehage-i-oslo/kongeskogen-barnehage/,"Strømsborgveien 12, 0287 OSLO",59.905006802879,10.676364392557,0.97,Kongeskogen barnehage,0.5531,https://barnehagefakta.no/barnehage/984019025/kongeskogen-barnehage
Frogner,Nordraaksgate barnehage,7,1,https://www.oslo.kommune.no/barnehage/finn-barnehage-i-oslo/nordraaks-gate-barnehage/,"Nordraaks gate 17, 0266 Oslo",59.922679950213,10.708707352932,0.7237,Nordraaks gate barnehage,0.6258,https://barnehagefakta.no/barnehage/973501453/nordraaksgate-barnehage-al
Frogner,Rosenborg barnehage,0,6,https://www.oslo.kommune.no/barnehage/finn-barnehage-i-oslo/rosenborg-barnehage/,"Suhms gate 36, 0363 Oslo",59.925929688496,10.726748933909,1.0,Rosenborg barnehage,1.0000,https://barnehagefakta.no/barnehage/979587937/rosenborg-barnehage
Frogner,Ruseløkka barnehage,8,4,https://www.oslo.kommune.no/barnehage/finn-barnehage-i-oslo/ruselokka-barnehage/,"Huitfeldts gate 32, 0253 OSLO",59.911537889135,10.721530186698,1.0,Ruseløkka barnehage,1.0000,https://barnehagefakta.no/barnehage/873769912/ruselokka-barnehage-as
Frogner,Schafteløkken barnehage,5,2,https://www.oslo.kommune.no/barnehage/finn-barnehage-i-oslo/schaftelokken-menighetsbarnehage/,"Zahlkasserer Schafts plass 2, 0267 OSLO",59.921101571253,10.702973051982,1.0,Schafteløkken Menighetsbarnehage,0.6767,https://barnehagefakta.no/barnehage/974725142/schaftelokken-menighets-barnehage
Frogner,Skillebekk,9,11,https://www.oslo.kommune.no/barnehage/finn-barnehage-i-oslo/skillebekk-barnehage/,"Drammensveien 33B, 0272 OSLO",59.914388442074,10.713682715353,0.97,Skillebekk barnehage,0.5417,https://barnehagefakta.no/barnehage/975291707/skillebekk-barnehage
Frogner,Solbærtorvet barnehage,7,1,https://www.oslo.kommune.no/barnehage/finn-barnehage-i-oslo/solbartorvet-barnehage/,"Gardeveien 4, 0363 OSLO",59.932578163961,10.718325532857,1.0,Solbærtorvet barnehage,1.0000,https://barnehagefakta.no/barnehage/995489422/solbartorvet-barnehage
Frogner,Solrosen Steinerbarnehage,2,2,https://www.oslo.kommune.no/barnehage/finn-barnehage-i-oslo/solrosen-steinerbarnehage/,"Oscars gate 84, 0256 OSLO",59.916246186211,10.718137588692,1.0,Solrosen steinerbarnehage,1.0000,https://barnehagefakta.no/barnehage/973464922/solrosen-steinerbarnehage-as
Frogner,Stallen,6,0,https://www.oslo.kommune.no/barnehage/finn-barnehage-i-oslo/stallen-barnehage/,"Frognerveien 67, 0266 OSLO",59.924932036636,10.707076932447,0.97,Stallen barnehage,0.4958,https://barnehagefakta.no/barnehage/973446584/stallen-barnehage-sa
Frogner,Studentenes Småbarnsstue - SIO Barnehage AS,4,1,https://www.oslo.kommune.no/barnehage/finn-barnehage-i-oslo/studentenes-smabarnstue-sio-barnehage/,"Henrik Ibsens gate 110, 0203 OSLO",59.914295649623,10.717362462411,0.7917,Studentenes Småbarnstue - SiO barnehage,0.7968,https://barnehagefakta.no/barnehage/930640115/studentenes-smabarnstue-sio-barnehage-as
Frogner,Tinkern Kanvas barnehage,19,7,https://www.oslo.kommune.no/barnehage/finn-barnehage-i-oslo/tinkern-kanvas-barnehage/,"Observatorie terrasse 17, 0270 Oslo",59.912140504162,10.713191250446,1.0,Tinkern Kanvas-barnehage,1.0000,https://barnehagefakta.no/barnehage/995467046/tinkern-kanvas-barnehage-drift
Frogner,Tinkern Kanvas-barnehage,19,7,https://www.oslo.kommune.no/barnehage/finn-barnehage-i-oslo/tinkern-kanvas-barnehage/,"Observatorie terrasse 17, 0270 Oslo",59.912140504162,10.713191250446,1.0,Tinkern Kanvas-barnehage,1.0000,https://barnehagefakta.no/barnehage/995467046/tinkern-kanvas-barnehage-drift
Frogner,Tjuvholmen Barnehage,10,2,https://www.oslo.kommune.no/barnehage/finn-barnehage-i-oslo/norlandia-tjuvholmen-barnehage/,"Landgangen 6, 0252 Oslo",59.907793809331,10.720477961504,0.7533,Norlandia Tjuvholmen barnehage,0.6733,https://barnehagefakta.no/barnehage/996016676/norlandia-tjuvholmen-barnehage
Frogner,Treklang montessori Barnehage,9,1,https://www.oslo.kommune.no/barnehage/finn-barnehage-i-oslo/treklang-montessoribarnehage/,"Underhaugsveien 20, 0354 Oslo",59.924021542164,10.727061271834,0.7261,Treklang montessoribarnehage,0.7279,https://barnehagefakta.no/barnehage/974183412/treklang-montessoribarnehage
Frogner,ULNA Hakkespetten Barnehage,10,1,https://www.oslo.kommune.no/barnehage/finn-barnehage-i-oslo/hakkespetten-barnehage-as/,"Huk aveny 55, 0287 Oslo",59.900548700317,10.680789885773,0.817,Hakkespetten barnehage,0.7272,https://barnehagefakta.no/barnehage/987117575/hakkespetten-barnehage
Frogner,Uranienborg barnehage,2,4,https://www.oslo.kommune.no/barnehage/finn-barnehage-i-oslo/uranienborg-barnehage/,"Camilla Colletts vei 43, 0258 OSLO",59.921660649966,10.722161918039,1.0,Uranienborg barnehage,1.0000,https://barnehagefakta.no/barnehage/975016838/uranienborg-barnehage
Frogner,Vigelandsparken barnehage,13,0,https://www.oslo.kommune.no/barnehage/finn-barnehage-i-oslo/vigelandsparken-barnehage/,"Nobels gate 30, 0268 OSLO",59.921825886017,10.701131714422,1.0,Vigelandsparken barnehage,1.0000,https://barnehagefakta.no/barnehage/875315862/vigelandsparken-barnehage
Gamle Oslo,Baglerbyen FUS barnehage,12,0,https://www.oslo.kommune.no/barnehage/finn-barnehage-i-oslo/baglerbyen-fus-barnehage/,"Konows gate 20, 0196 OSLO",59.902896981628,10.774412018147,1.0,Baglerbyen FUS barnehage,1.0000,https://barnehagefakta.no/barnehage/914129427/baglerbyen-fus-barnehage-as
Gamle Oslo,Borggata familiebarnehage,1,0,https://www.oslo.kommune.no/barnehage/finn-barnehage-i-oslo/borggata-familiebarnehage/,"Borggata 8, 0650 Oslo",59.912559245871,10.770676389197,1.0,Borggata familiebarnehage,1.0000,https://barnehagefakta.no/barnehage/997524705/borggata-familiebarnehage
Gamle Oslo,Breigata barnehage,2,5,https://www.oslo.kommune.no/barnehage/finn-barnehage-i-oslo/breigata-barnehage/,"Breigata 3, 0187 OSLO",59.913967150949,10.76064751047,1.0,Breigata barnehage,1.0000,https://barnehagefakta.no/barnehage/979588925/breigata-barnehage
Gamle Oslo,Colores Barnehage,13,0,https://www.oslo.kommune.no/barnehage/finn-barnehage-i-oslo/colores-barnehage/,"Fyrstikkalleen 19, 0661 OSLO",59.914615817304,10.794469540697,1.0,Colores barnehage,1.0000,https://barnehagefakta.no/barnehage/894436662/alleen-barnehage
Gamle Oslo,Dumpa Kanvas-musikkbarnehage,13,0,https://www.oslo.kommune.no/barnehage/finn-barnehage-i-oslo/dumpa-kanvas-musikkbarnehage/,"Etterstadsletta 94, 0659 OSLO",59.906652215916,10.800173376866,1.0,Dumpa Kanvas-musikkbarnehage,1.0000,https://barnehagefakta.no/barnehage/873076372/dumpa-kanvas-musikkbarnehage
Gamle Oslo,Eitillstad FUS Barnehage,11,2,https://www.oslo.kommune.no/barnehage/finn-barnehage-i-oslo/eitillstad-fus-barnehage/,"Arnljot Gellines vei 5A, 0657 OSLO",59.905063554338,10.793835999737,1.0,Eitillstad FUS barnehage,1.0000,https://barnehagefakta.no/barnehage/891041942/eitillstad-fus-barnehage
Gamle Oslo,Enerhaugen,5,3,https://www.oslo.kommune.no/barnehage/finn-barnehage-i-oslo/enerhaugen-barnehage/,"Sørligata 4, 0577 Oslo",59.913784702023,10.768239408643,0.97,Enerhaugen barnehage,0.5417,https://barnehagefakta.no/barnehage/975291359/enerhaugen-barnehage
Gamle Oslo,Ensjø Torg barnehage,15,0,https://www.oslo.kommune.no/barnehage/finn-barnehage-i-oslo/ensjo-torg-barnehage/,"Rolf Hofmos gate 20, 0655 OSLO",59.913674175434,10.787555810861,1.0,Ensjø Torg barnehage,1.0000,https://barnehagefakta.no/barnehage/924645660/ensjo-torg-barnehage
Gamle Oslo,Etterstad barnehage,22,5,https://www.oslo.kommune.no/barnehage/finn-barnehage-i-oslo/etterstad-barnehage/,"Etterstadsletta 45, 0660 OSLO",59.910993,10.802677,1.0,Etterstad barnehage,1.0000,https://barnehagefakta.no/barnehage/975291367/etterstad-barnehage
Gamle Oslo,Etterstadjordet barnehage,25,0,https://www.oslo.kommune.no/barnehage/finn-barnehage-i-oslo/etterstadjordet-barnehage/,"Etterstadsletta 58, 0659 Oslo",59.908848880399,10.804131915272,1.0,Etterstadjordet barnehage,1.0000,https://barnehagefakta.no/barnehage/994004956/etterstadjordet-barnehage
Gamle Oslo,Fridtjovsgate barnehage,5,0,https://www.oslo.kommune.no/barnehage/finn-barnehage-i-oslo/fridtjovsgate-barnehage/,"Fridtjovs gate 1, 0658 OSLO",59.907086110398,10.792060296337,1.0,Fridtjovsgate barnehage,1.0000,https://barnehagefakta.no/barnehage/986877711/fridtjovsgate-barnehage
Gamle Oslo,Fyrstikkalleen bhg,22,0,https://www.oslo.kommune.no/barnehage/finn-barnehage-i-oslo/fyrstikkalleen-barnehage/,"Fyrstikkalleen 21, 0661 OSLO",59.915255473376,10.794325204854,1.0,Fyrstikkalleen barnehage,1.0000,https://barnehagefakta.no/barnehage/995631806/fyrstikkalleen-barnehage
Gamle Oslo,Gamlebyen Urtehagen barnehager As,8,10,https://www.oslo.kommune.no/barnehage/finn-barnehage-i-oslo/gamlebyen-urtehagen-barnehager-as/,"Oslo gate 17-21, 0192 Oslo",59.905417634274,10.767293766838,0.97,Gamlebyen Urtehagen barnehager,0.8863,https://barnehagefakta.no/barnehage/973943812/gamlebyen-urtehagen-barnehager-as
Gamle Oslo,Grønland torg barnehage,5,8,https://www.oslo.kommune.no/barnehage/finn-barnehage-i-oslo/gronland-torg-barnehage/,"Smalgangen 17-22, 0188 Oslo",59.912037876117,10.761189191523,1.0,Grønland torg barnehage,1.0000,https://barnehagefakta.no/barnehage/975325016/gronland-torg-barnehage
Gamle Oslo,Grønland Urtehagen barnehager AS,13,1,https://www.oslo.kommune.no/barnehage/finn-barnehage-i-oslo/lille-gronland-urtehagen-barnehager-as/,"Lakkegata 19, 0187 OSLO",59.91452,10.760508,0.7727,Lille Grønland Urtehagen barnehager,0.6861,https://barnehagefakta.no/barnehage/912132145/lille-gronland-barnehage
Gamle Oslo,Heibergløkka barnehage,5,0,https://www.oslo.kommune.no/barnehage/finn-barnehage-i-oslo/heiberglokka-barnehage/,"Økernveien 4, 0653 Oslo",59.915431525535,10.776018406345,1.0,Heibergløkka barnehage,1.0000,https://barnehagefakta.no/barnehage/991744568/heiberglokka-barnehage
Gamle Oslo,Hovinenga Barnehage,11,0,https://www.oslo.kommune.no/barnehage/finn-barnehage-i-oslo/hovinenga-barnehage/,"Innspurten 12E, 0663 Oslo",59.91647516555,10.803277632117,1.0,Hovinenga barnehage,1.0000,https://barnehagefakta.no/barnehage/925497541/hovinenga-barnehage
Gamle Oslo,Hurdalsgata barnehage,6,2,https://www.oslo.kommune.no/barnehage/finn-barnehage-i-oslo/hurdalsgata-barnehage/,"Hurdalsgata 6, 0655 Oslo",59.909815014696,10.78090470582,1.0,Hurdalsgata barnehage,1.0000,https://barnehagefakta.no/barnehage/975316149/hurdalsgata-barnehage
Gamle Oslo,Internasjonal Kultur barnehage Åkeberg og Enebakk,11,13,https://www.oslo.kommune.no/barnehage/finn-barnehage-i-oslo/internasjonal-kulturbarnehage-akeberg/,"Åkebergveien 23, 0650 OSLO",59.908190577791,10.77815311231,1.0,Internasjonal kulturbarnehage Åkeberg,0.6733,https://barnehagefakta.no/barnehage/975291855/akeberg-barnehage
Gamle Oslo,Jordal barnehage,10,2,https://www.oslo.kommune.no/barnehage/finn-barnehage-i-oslo/jordal-barnehage/,"Jordalgata 11, 0657 Oslo",59.908910439589,10.78536289174,1.0,Jordal barnehage,1.0000,https://barnehagefakta.no/barnehage/975316084/jordal-barnehage
Gamle Oslo,Kampen barnehage,6,2,https://www.oslo.kommune.no/barnehage/finn-barnehage-i-oslo/kampen-barnehage/,"Skedsmogata 19B, 0665 OSLO",59.912836861067,10.784590062134,1.0,Kampen barnehage,1.0000,https://barnehagefakta.no/barnehage/975316068/kampen-barnehage
Gamle Oslo,Kampen Kunstbarnehage,2,3,https://www.oslo.kommune.no/barnehage/finn-barnehage-i-oslo/kampen-kunstbarnehage/,"Sonsgt. 2, 0654 OSLO",59.91537,10.78257,1.0,Kampen kunstbarnehage,1.0000,https://barnehagefakta.no/barnehage/988081140/kampen-kunstbarnehage
Gamle Oslo,Kardemomme bhg SA,9,0,https://www.oslo.kommune.no/barnehage/finn-barnehage-i-oslo/kardemomme-barnehage/,"Skedsmogata 21, 0665 OSLO",59.912461383277,10.785124352492,0.97,Kardemomme barnehage,0.8450,https://barnehagefakta.no/barnehage/977408725/kardemomme-barnehage-sa
Gamle Oslo,Kværnerbyen FUS barnehage,12,2,https://www.oslo.kommune.no/barnehage/finn-barnehage-i-oslo/kvarnerbyen-fus-barnehage/,"Turbinveien 32, 0195 OSLO",59.903045444086,10.788677717291,1.0,Kværnerbyen FUS barnehage,1.0000,https://barnehagefakta.no/barnehage/991875417/kvarnerbyen-fus-barnehage-as
Gamle Oslo,Kværnerdalen barnehage,39,10,https://www.oslo.kommune.no/barnehage/finn-barnehage-i-oslo/kvarnerdalen-barnehage/,"Enebakkveien 71, 0196 OSLO",59.903155,10.791296,1.0,Kværnerdalen barnehage,1.0000,https://barnehagefakta.no/barnehage/994004840/kvarnerdalen-barnehage
Gamle Oslo,Lakkegården,13,1,https://www.oslo.kommune.no/barnehage/finn-barnehage-i-oslo/lakkegarden-barnehage/,"Heimdalsgata 19-21, 0561 OSLO",59.915981723198,10.764474762437,0.97,Lakkegården barnehage,0.5531,https://barnehagefakta.no/barnehage/975291391/lakkegarden-barnehage
Gamle Oslo,Langleiken barnehage,4,0,https://www.oslo.kommune.no/barnehage/finn-barnehage-i-oslo/langleiken-barnehage/,"Enerhauggata 2, 0651 OSLO",59.913665010586,10.769127340831,1.0,Langleiken barnehage,1.0000,https://barnehagefakta.no/barnehage/912022498/langleiken-barnehage
Gamle Oslo,Lille Grønland Urtehagen barnehager AS,13,0,https://www.oslo.kommune.no/barnehage/finn-barnehage-i-oslo/lille-gronland-urtehagen-barnehager-as/,"Lakkegata 19, 0187 OSLO",59.91452,10.760508,0.97,Lille Grønland Urtehagen barnehager,0.9074,https://barnehagefakta.no/barnehage/912132145/lille-gronland-barnehage
Gamle Oslo,Læringsverkstedet Nonneseter Idrettsbarnehage,15,0,https://www.oslo.kommune.no/barnehage/finn-barnehage-i-oslo/laringsverkstedet-nonneseter-idrettsbarnehage/,"Grønlandsleiret 71, 0190 OSLO",59.909308424864,10.767829645779,1.0,Læringsverkstedet Nonneseter idrettsbarnehage,1.0000,https://barnehagefakta.no/barnehage/911809311/laringsverkstedet-nonneseter-idrettsbarnehage
Gamle Oslo,Malerhaugen barnehage,9,0,https://www.oslo.kommune.no/barnehage/finn-barnehage-i-oslo/malerhaugen-barnehage/,"Malerhaugveien 20, 0661 OSLO",59.914394293835,10.792497313491,1.0,Malerhaugen barnehage,1.0000,https://barnehagefakta.no/barnehage/929762118/malerhaugen-barnehage
Gamle Oslo,Mosaikk Urtehagen barnehager AS,0,25,https://www.oslo.kommune.no/barnehage/finn-barnehage-i-oslo/mosaikk-urtehagen-barnehager-as/,"Norbygata 34, 0187 OSLO",59.914280709388,10.76420023762,0.97,Mosaikk Urtehagen barnehager,0.8845,https://barnehagefakta.no/barnehage/987639105/mosaikk-urtehagen-barnehager-as
Gamle Oslo,Munik,3,2,https://www.oslo.kommune.no/barnehage/finn-barnehage-i-oslo/munik-barnehage/,"Totengata 7, 0658 Oslo",59.909621696873,10.787886948841,0.97,Munik barnehage,0.4500,https://barnehagefakta.no/barnehage/973486063/munik-barnehage
Gamle Oslo,Munkenga barnehage,9,0,https://www.oslo.kommune.no/barnehage/finn-barnehage-i-oslo/munkenga-barnehage/,"Galgeberg 2, 0657 OSLO",59.907573040351,10.778656568603,1.0,Munkenga barnehage,1.0000,https://barnehagefakta.no/barnehage/988410756/munkenga-barnehage
Gamle Oslo,Norlandia Enga barnehage,5,1,https://www.oslo.kommune.no/barnehage/finn-barnehage-i-oslo/norlandia-enga-barnehage/,"Opplandgata 5, 0657 Oslo",59.907351689067,10.785064598897,1.0,Norlandia Enga barnehage,1.0000,https://barnehagefakta.no/barnehage/997453964/norlandia-enga-barnehage
Gamle Oslo,Normannsløkka barnehage,11,1,https://www.oslo.kommune.no/barnehage/finn-barnehage-i-oslo/normannslokka-barnehage/,"Sigurd Hoels vei 14, 0655 Oslo",59.917246036561,10.785309783808,1.0,Normannsløkka barnehage,1.0000,https://barnehagefakta.no/barnehage/932843919/normannslokka-barnehage
Gamle Oslo,Papaya Kanvas-barnehage,5,4,https://www.oslo.kommune.no/barnehage/finn-barnehage-i-oslo/papaya-kanvas-barnehage/,"Rubina Ranas gate 10, 0192 OSLO",59.911760067049,10.76450107064,1.0,Papaya Kanvas-barnehage,1.0000,https://barnehagefakta.no/barnehage/990839778/papaya-kanvas-barnehage
Gamle Oslo,Petersborg barnehage,10,0,https://www.oslo.kommune.no/barnehage/finn-barnehage-i-oslo/petersborg-barnehage/,"Sigurd Hoels vei 21, 0655 OSLO",59.916698141474,10.787299874683,1.0,Petersborg barnehage,1.0000,https://barnehagefakta.no/barnehage/922827087/petersborg-barnehage
Gamle Oslo,Sigurdsgate familiebarnehage,3,0,https://www.oslo.kommune.no/barnehage/finn-barnehage-i-oslo/sigurdsgate-familiebarnehage/,"Sigurds gate 20C, 0650 OSLO",59.913210455003,10.774880247849,1.0,Sigurdsgate familiebarnehage,1.0000,https://barnehagefakta.no/barnehage/995110199/sigurdsgate-familiebarnehage-as
Gamle Oslo,Sommerfryd,15,2,https://www.oslo.kommune.no/barnehage/finn-barnehage-i-oslo/sommerfryd-barnehage/,"Hagegata 29, 0653 OSLO",59.913832211561,10.775396371546,0.97,Sommerfryd barnehage,0.5417,https://barnehagefakta.no/barnehage/888540512/sommerfryd-barnehage
Gamle Oslo,Sotamyggen barnehage,6,1,https://www.oslo.kommune.no/barnehage/finn-barnehage-i-oslo/sotamyggen-barnehage/,"Vålerenggata 27, 0658 OSLO",59.908190299446,10.787470195775,1.0,Sotamyggen barnehage,1.0000,https://barnehagefakta.no/barnehage/993406597/sotamyggen-barnehage
Gamle Oslo,Strekkoden bhg,6,7,https://www.oslo.kommune.no/barnehage/finn-barnehage-i-oslo/strekkoden-barnehage/,"Trelastgata 23, 0191 OSLO",59.907992615914,10.761928064754,1.0,Strekkoden barnehage,1.0000,https://barnehagefakta.no/barnehage/918381309/strekkoden-barnehage
Gamle Oslo,Stålverkskroken barnehage AS,14,2,https://www.oslo.kommune.no/barnehage/finn-barnehage-i-oslo/stalverkskroken-barnehage/,"Stålverkskroken 14A, 0661 OSLO",59.917665238595,10.790294497145,0.97,Stålverkskroken barnehage,0.8522,https://barnehagefakta.no/barnehage/912827437/stalverkskroken-barnehage-as
Gamle Oslo,Sørenga barnehage,22,10,https://www.oslo.kommune.no/barnehage/finn-barnehage-i-oslo/sorenga-barnehage/,"Sørengkaia 76, 0194 OSLO",59.902661064848,10.755409033058,1.0,Sørenga barnehage,1.0000,https://barnehagefakta.no/barnehage/998754461/sorenga-barnehage
Gamle Oslo,Trudes familie barnehage,0,0,https://www.oslo.kommune.no/barnehage/finn-barnehage-i-oslo/trudes-familiebarnehage/,"Bøgata 12, 0654 Oslo",59.912103892647,10.781009441386,0.7237,Trudes familiebarnehage,0.7258,https://barnehagefakta.no/barnehage/987021152/trudes-familiebarnehage-trude-gulbrandsen
Gamle Oslo,Ullensakergata barnehage,3,0,https://www.oslo.kommune.no/barnehage/finn-barnehage-i-oslo/ullensakergata-barnehage/,"Ullensakergata 13, 0665 OSLO",59.911014328113,10.781881069061,1.0,Ullensakergata barnehage,1.0000,https://barnehagefakta.no/barnehage/994174525/0-6-ullensakergata-barnehage-as
Gamle Oslo,Valle barnehage,7,0,https://www.oslo.kommune.no/barnehage/finn-barnehage-i-oslo/valle-barnehage/,"Vallefaret 14, 0663 OSLO",59.919186246347,10.801800406706,1.0,Valle barnehage,1.0000,https://barnehagefakta.no/barnehage/975291804/valle-barnehage
Gamle Oslo,Valle hovin Idrettsbarnehage,21,3,https://www.oslo.kommune.no/barnehage/finn-barnehage-i-oslo/valle-hovin-idrettsbarnehage-as/,"Innspurten 16H, 0663 OSLO",59.917315640868,10.805326703986,0.97,Valle Hovin Idrettsbarnehage AS,0.8845,https://barnehagefakta.no/barnehage/918290222/valle-hovin-barnehage
Gamle Oslo,Venkesfamiliebarnehage,0,0,https://www.oslo.kommune.no/barnehage/finn-barnehage-i-oslo/venkes-familiebarnehage/,"Bøgata 14, 0665 Oslo",59.912103892647,10.781009441386,0.6356,Venkes familiebarnehage,0.5378,https://barnehagefakta.no/barnehage/992332336/venkes-familiebarnehage-venke-anita-fredstad
Gamle Oslo,Vålerenggata baro,5,0,https://www.oslo.kommune.no/barnehage/finn-barnehage-i-oslo/valerenggata-barnehage/,"Vålerenggata 10, 0657 OSLO",59.907910054081,10.784289843577,0.65,Vålerenggata barnehage,0.6679,https://barnehagefakta.no/barnehage/899303962/0-6-valerenggata-barnehage-as
Gamle Oslo,Åkeberg barnehage,15,0,https://www.oslo.kommune.no/barnehage/finn-barnehage-i-oslo/akeberg-barnehage/,"Åkebergveien 23, 0650 Oslo",59.908308138087,10.777789474533,1.0,Åkeberg barnehage,1.0000,https://barnehagefakta.no/barnehage/975291855/akeberg-barnehage
Grorud,Ammerudenga barnehage,24,6,https://www.oslo.kommune.no/barnehage/finn-barnehage-i-oslo/ammerudenga-barnehage/,"Ammerudveien 47, 0958 OSLO",59.964065215246,10.874153887874,1.0,Ammerudenga barnehage,1.0000,https://barnehagefakta.no/barnehage/975291243/ammerudenga-barnehage
Grorud,Ammerudgrenda barnehage,14,2,https://www.oslo.kommune.no/barnehage/finn-barnehage-i-oslo/ammerudgrenda-barnehage/,"Ammerudgrenda 327B, 0960 OSLO",59.964988405225,10.877448516098,1.0,Ammerudgrenda barnehage,1.0000,https://barnehagefakta.no/barnehage/975291251/ammerudgrenda-barnehage
Grorud,Ammerudkollen friluftsbarnehage,24,1,https://www.oslo.kommune.no/barnehage/finn-barnehage-i-oslo/ammerudkollen-barnehage/,"Lilloseterveien 43, 0957 OSLO",59.963293557652,10.869667805431,1.0,Ammerudkollen friluftsbarnehage,1.0000,https://barnehagefakta.no/barnehage/875291262/ammerudkollen-barnehage
Grorud,Ammerudlia barnehage,24,13,https://www.oslo.kommune.no/barnehage/finn-barnehage-i-oslo/ammerudlia-barnehage/,"Ammerudhellinga 49, 0959 OSLO",59.962505570165,10.878352319421,1.0,Ammerudlia barnehage,1.0000,https://barnehagefakta.no/barnehage/975291278/ammerudlia-barnehage
Grorud,Flaen barnehage,16,0,https://www.oslo.kommune.no/barnehage/finn-barnehage-i-oslo/flaen-barnehage/,"Kalbakkveien 32B, 0953 OSLO",59.953739327982,10.872671716692,1.0,Flaen barnehage,1.0000,https://barnehagefakta.no/barnehage/975291375/flaen-barnehage
Grorud,Grorud idrettsbarnehage,15,2,https://www.oslo.kommune.no/barnehage/finn-barnehage-i-oslo/grorud-idrettsbarnehage/,"Grorudveien 7, 0962 Oslo",59.95807075804,10.88198245187,1.0,Grorud idrettsbarnehage,1.0000,https://barnehagefakta.no/barnehage/996081222/grorud-idrettsbarnehage
Grorud,Hakkebakkeskogen Familiebarnehage Kirkesvingen,4,0,https://www.oslo.kommune.no/barnehage/finn-barnehage-i-oslo/hakkebakkeskogen-familiebarnehage-kirkesvingen/,"Kirkesvingen 3, 0962 Oslo",59.957223508172,10.885964154265,1.0,Hakkebakkeskogen familiebarnehage (Kirkesvingen),1.0000,https://barnehagefakta.no/barnehage/884170532/hakkebakkeskogen-kirkesvingen
Grorud,Lilleslottet barnehage,18,5,https://www.oslo.kommune.no/barnehage/finn-barnehage-i-oslo/lilleslottet-barnehage/,"Odvar Solbergs vei 176C, 0973 OSLO",59.970324065297,10.90312124688,1.0,Lilleslottet barnehage,1.0000,https://barnehagefakta.no/barnehage/975297977/lilleslottet-barnehage
Grorud,Lillomarka Kanvas-barnehage,8,0,https://www.oslo.kommune.no/barnehage/finn-barnehage-i-oslo/lillomarka-kanvas-barnehage/,"Hukenveien 12, 0963 OSLO",59.970103737083,10.876483909161,1.0,Lillomarka Kanvas-barnehage,1.0000,https://barnehagefakta.no/barnehage/973489844/lillomarka-kanvas-barnehage
Grorud,Nemo Fambhg avd rødtvet,3,0,https://www.oslo.kommune.no/barnehage/finn-barnehage-i-oslo/nemo-familiebarnehage-rodtvet/,"Hans Aanruds vei 46, 0956 Oslo",59.953834893717,10.848701762796,1.0,"Nemo familiebarnehage, Rødtvet",0.5419,https://barnehagefakta.no/barnehage/913043898/nemo-familiebarnehage-filiz-gcc
Grorud,Nordtvet barnehage,0,3,https://www.oslo.kommune.no/barnehage/finn-barnehage-i-oslo/nordtvet-barnehage/,"Gårdsveien 2 B, 0952 Oslo",59.950563729451,10.871761956661,1.0,Nordtvet barnehage,1.0000,https://barnehagefakta.no/barnehage/875291572/nordtvet-barnehage
Grorud,Nordtvet gård barnehage,14,4,https://www.oslo.kommune.no/barnehage/finn-barnehage-i-oslo/nordtvet-gard-barnehage/,"Gårdsveien 7, 0952 Oslo",59.950800148214,10.874531101995,1.0,Nordtvet gård barnehage,1.0000,https://barnehagefakta.no/barnehage/815982762/nordtvet-gard-barnehage-as
Grorud,Nøtteliten familiebarnehage,0,0,https://www.oslo.kommune.no/barnehage/finn-barnehage-i-oslo/notteliten-familiebarnehage/,"Arthur Nordlies vei 7, 0956 Oslo",59.957089639498,10.863400798547,1.0,Nøtteliten familiebarnehage,1.0000,https://barnehagefakta.no/barnehage/991997210/notteliten-familiebarnehage
Grorud,Rasmusbakken barnehage,17,0,https://www.oslo.kommune.no/barnehage/finn-barnehage-i-oslo/rasmusbakken-barnehage/,"Rasmusbakken 1, 0962 OSLO",59.954971,10.877715,1.0,Rasmusbakken barnehage,1.0000,https://barnehagefakta.no/barnehage/975298124/rasmusbakken-barnehage
Grorud,Ravnkollen barnehage,14,6,https://www.oslo.kommune.no/barnehage/finn-barnehage-i-oslo/ravnkollen-barnehage/,"Ravnkollbakken 71, 0971 OSLO",59.967913637147,10.892735048533,1.0,Ravnkollen barnehage,1.0000,https://barnehagefakta.no/barnehage/975291642/ravnkollen-barnehage
Grorud,Rødtvet barnehage,24,13,https://www.oslo.kommune.no/barnehage/finn-barnehage-i-oslo/rodtvet-barnehage/,"Sandåsveien 5, 0956 OSLO",59.953490322972,10.855971066253,1.0,Rødtvet barnehage,1.0000,https://barnehagefakta.no/barnehage/975291669/rodtvet-barnehage
Grorud,Sandåsveien,10,17,https://www.oslo.kommune.no/barnehage/finn-barnehage-i-oslo/sandasveien-barnehage/,"Sandåsveien 1, 0956 OSLO",59.95360227609,10.857589042113,0.97,Sandåsveien barnehage,0.5531,https://barnehagefakta.no/barnehage/975291901/sandasveien-barnehage
Grorud,Skogkanten barnehage,0,6,https://www.oslo.kommune.no/barnehage/finn-barnehage-i-oslo/skogkanten-barnehage/,"Arthur Nordlies vei 7, 0956 OSLO",59.957089639498,10.863400798547,1.0,Skogkanten Barnehage,1.0000,https://barnehagefakta.no/barnehage/982443636/skogkanten-barnehage-as
Grorud,Tiurleiken barnehage,7,5,https://www.oslo.kommune.no/barnehage/finn-barnehage-i-oslo/tiurleiken-barnehage/,"Ravnkollbakken 24B, 0971 Oslo",59.964015942374,10.890201773272,1.0,Tiurleiken barnehage,1.0000,https://barnehagefakta.no/barnehage/975291898/tiurleiken-barnehage
Grorud,Tjernveien Barnehage,3,18,https://www.oslo.kommune.no/barnehage/finn-barnehage-i-oslo/tjernveien-barnehage/,"Ammerudhellinga 2-4, 0959 Oslo",59.960279,10.865609,1.0,Tjernveien barnehage,1.0000,https://barnehagefakta.no/barnehage/979591942/tjernveien-barnehage
Grünerløkka,Akersløkka barnehage,11,5,https://www.oslo.kommune.no/barnehage/finn-barnehage-i-oslo/akerslokka-barnehage/,"Torvbakkgata 9, 0550 OSLO",59.919595,10.756882,1.0,Akersløkka barnehage,1.0000,https://barnehagefakta.no/barnehage/881503972/akerslokka-barnehage
Grünerløkka,Barnas Hus barnehage,25,0,https://www.oslo.kommune.no/barnehage/finn-barnehage-i-oslo/barnas-hus-barnehage/,"Christies gate 38, 0568 OSLO",59.93071418081,10.76493515499,1.0,Barnas hus barnehage,1.0000,https://barnehagefakta.no/barnehage/975317544/barnas-hus-barnehage
Grünerløkka,BarnehagenVår Løren,10,0,https://www.oslo.kommune.no/barnehage/finn-barnehage-i-oslo/barnehagen-var-loren/,"Sinsenveien 29, 0585 OSLO",59.931149792197,10.78727390815,1.0,"Barnehagenvår, Løren",1.0000,https://barnehagefakta.no/barnehage/990972850/barnehagenvar-loren
Grünerløkka,Bellevue Gård barnehage,13,0,https://www.oslo.kommune.no/barnehage/finn-barnehage-i-oslo/bellevue-gard-barnehage/,"Helgesens gate 92, 0563 OSLO",59.919391532473,10.777747027736,1.0,Bellevue Gård barnehage,1.0000,https://barnehagefakta.no/barnehage/875317512/bellevue-gard-barnehage
Grünerløkka,Brødfabrikken FUS,14,0,https://www.oslo.kommune.no/barnehage/finn-barnehage-i-oslo/brodfabrikken-fus-barnehage/,"Lørenvangen 3, 0585 OSLO",59.92902,10.794814,0.97,Brødfabrikken FUS barnehage,0.7583,https://barnehagefakta.no/barnehage/917744807/brodfabrikken-fus-barnehage-as
Grünerløkka,"Cizaš, Oslo sámi mánáidgárdi, Oslo samiske barnehage",3,0,https://www.oslo.kommune.no/barnehage/finn-barnehage-i-oslo/samisk-barnehage/,"Helgesens gate 94, 0563 OSLO",59.9196372,10.7760651,1.0,"Cizaš, Oslo sámi mánáidgárdi, Oslo samiske barnehage",1.0000,https://barnehagefakta.no/barnehage/975315967/sami-manaid-gardi-cizas
Grünerløkka,Espira Gartnerløkka barnehage,21,2,https://www.oslo.kommune.no/barnehage/finn-barnehage-i-oslo/espira-gartnerlokka-barnehage/,"Lørenvangen 24 Hus 4C, 0585 OSLO",59.931595,10.79718,1.0,Espira Gartnerløkka barnehage,1.0000,https://barnehagefakta.no/barnehage/816032172/espira-gartnerlokka-barnehage
Grünerløkka,Espira Marienfryd,20,0,https://www.oslo.kommune.no/barnehage/finn-barnehage-i-oslo/espira-marienfryd-barnehage/,"Hovinveien 37E, 0576 OSLO",59.920512859064,10.791780696061,0.97,Espira Marienfryd barnehage,0.7583,https://barnehagefakta.no/barnehage/992462310/espira-marienfryd-barnehage
Grünerløkka,Eventyrbrua Steinerbarnehage,10,0,https://www.oslo.kommune.no/barnehage/finn-barnehage-i-oslo/eventyrbrua-steinerbarnehage/,"Storgata 55, 0182 OSLO",59.917645562735,10.758187779732,1.0,Eventyrbrua Steinerbarnehage,1.0000,https://barnehagefakta.no/barnehage/984151527/eventyrbrua-steinerbarnehage
Grünerløkka,Gaia barnehage AS,6,3,https://www.oslo.kommune.no/barnehage/finn-barnehage-i-oslo/gaia-barnehage/,"Thorvald Meyers gate 46, 0550 Oslo",59.923109276041,10.759378579231,0.97,Gaia barnehage,0.8301,https://barnehagefakta.no/barnehage/986611134/gaia-barnehage
Grünerløkka,Gregers barnehage,7,1,https://www.oslo.kommune.no/barnehage/finn-barnehage-i-oslo/gregers-barnehage/,"Lørenvangen 10a, 0585 Oslo",59.929368314694,10.794770763404,1.0,Gregers barnehage,1.0000,https://barnehagefakta.no/barnehage/933560627/gregers-barnehage
Grünerløkka,Grünerhagen barnehage,13,1,https://www.oslo.kommune.no/barnehage/finn-barnehage-i-oslo/grunerhagen-barnehage/,"Sofienberggata 3B, 0551 Oslo",59.922094301566,10.756015102901,1.0,Grünerhagen barnehage,1.0000,https://barnehagefakta.no/barnehage/975315908/grnerhagen-barnehage
Grünerløkka,Hallénparken,7,17,https://www.oslo.kommune.no/barnehage/finn-barnehage-i-oslo/hallenparken-barnehage/,"Christies gate 40-42, 0568 Oslo",59.930311376241,10.764162166415,0.97,Hallènparken barnehage,0.7216,https://barnehagefakta.no/barnehage/975297802/hallenparken-barnehage
Grünerløkka,Hammerfestgata barnehage,10,0,https://www.oslo.kommune.no/barnehage/finn-barnehage-i-oslo/hammerfestgata-barnehage/,"Hammerfestgata 12-16, 0560 Oslo",59.925526749166,10.772414138439,1.0,Hammerfestgata barnehage,1.0000,https://barnehagefakta.no/barnehage/975315916/hammerfestgata-barnehage
Grünerløkka,Keyserløkka barnehage,0,11,https://www.oslo.kommune.no/barnehage/finn-barnehage-i-oslo/keyserlokka-barnehage/,"Einars vei 7, 0575 OSLO",59.923141874181,10.785018255509,1.0,Keyserløkka barnehage,1.0000,https://barnehagefakta.no/barnehage/975016560/keyserlokka-barnehage
Grünerløkka,Konfektfabrikken,9,0,https://www.oslo.kommune.no/barnehage/finn-barnehage-i-oslo/laringsverkstedet-konfektfabrikken/,"Stockholmgata 7, 0566 OSLO",59.926190334497,10.767607765287,0.5828,Læringsverkstedet Konfektfabrikken,0.5201,https://barnehagefakta.no/barnehage/899164512/laringsverkstedet-konfektfabrikken-barnehage
Grünerløkka,Konfektfabrikken,9,0,https://www.oslo.kommune.no/barnehage/finn-barnehage-i-oslo/laringsverkstedet-konfektfabrikken/,"Stockholmgata 7, 0566 OSLO",59.926190334497,10.767607765287,0.5828,Læringsverkstedet Konfektfabrikken,0.5201,https://barnehagefakta.no/barnehage/899164512/laringsverkstedet-konfektfabrikken-barnehage
Grünerløkka,Krydderhagen barnehage,13,2,https://www.oslo.kommune.no/barnehage/finn-barnehage-i-oslo/krydderhagen-barnehage/,"Bøkkerveien 16 B og C, 0579 OSLO",59.92809859207,10.795616496063,1.0,Krydderhagen barnehage,1.0000,https://barnehagefakta.no/barnehage/822119212/krydderhagen-barnehage
Grünerløkka,Kulturparken FUS barnehage as,13,0,https://www.oslo.kommune.no/barnehage/finn-barnehage-i-oslo/kulturparken-fus-barnehage/,"Sofienberggata 58, 0563 OSLO",59.920916490517,10.776222092328,0.97,Kulturparken FUS barnehage,0.8825,https://barnehagefakta.no/barnehage/986993282/kulturparken-fus-barnehage-as
Grünerløkka,Lykketrollet familiebarnehage Frydens gate,1,0,https://www.oslo.kommune.no/barnehage/finn-barnehage-i-oslo/lykketrollet-familiebarnehage-sverdrups-gate/,"Sverdrups Gate 18, 0559 OSLO",59.92081488104,10.765733212759,0.7844,Lykketrollet familiebarnehage (Sverdrups gate),0.7960,https://barnehagefakta.no/barnehage/992547081/lykketrollet-familiebarnehage-avdeling-frydens-gate-as
Grünerløkka,Lykketrollet familiebarnehage Sverdrups gate,1,0,https://www.oslo.kommune.no/barnehage/finn-barnehage-i-oslo/lykketrollet-familiebarnehage-sverdrups-gate/,"Sverdrups Gate 18, 0559 OSLO",59.92081488104,10.765733212759,1.0,Lykketrollet familiebarnehage (Sverdrups gate),1.0000,https://barnehagefakta.no/barnehage/992594098/lykketrollet-familiebarnehage-avdeling-sverdrupsgate-as
Grünerløkka,Løren Botaniske barnehage,5,1,https://www.oslo.kommune.no/barnehage/finn-barnehage-i-oslo/loren-botaniske-barnehage/,"Børsteveien 35, 0585 Oslo",59.933399955435,10.793682414067,1.0,Løren Botaniske barnehage,1.0000,https://barnehagefakta.no/barnehage/934371674/loren-botaniske-barnehage
Grünerløkka,Nedregate barnehage,11,4,https://www.oslo.kommune.no/barnehage/finn-barnehage-i-oslo/nedregate-barnehage/,"Nedregate 3, 0551 Oslo",59.920169,10.754206,1.0,Nedregate barnehage,1.0000,https://barnehagefakta.no/barnehage/920187943/nedregate-barnehage
Grünerløkka,Norlandia Kanonen barnehage,17,0,https://www.oslo.kommune.no/barnehage/finn-barnehage-i-oslo/kanonen-barnehage/,"Lørenveien 40, 0585 OSLO",59.931151706657,10.791765781944,1.0,Norlandia Kanonen barnehage,1.0000,https://barnehagefakta.no/barnehage/997478673/norlandia-kanonen-barnehage
Grünerløkka,Ola Narr barnehage,11,0,https://www.oslo.kommune.no/barnehage/finn-barnehage-i-oslo/ola-narr-barnehage/,"Grenseveien 19, 0571 Oslo",59.92461336033,10.781143188556,1.0,Ola Narr barnehage,1.0000,https://barnehagefakta.no/barnehage/975315932/ola-narr-barnehage
Grünerløkka,Rodeløkka barnehage,11,0,https://www.oslo.kommune.no/barnehage/finn-barnehage-i-oslo/rodelokka-barnehage/,"Tromsøgata 2, 0560 OSLO",59.923067786479,10.769860523907,1.0,Rodeløkka barnehage,1.0000,https://barnehagefakta.no/barnehage/975291650/rodelokka-barnehage
Grünerløkka,Seilduken,8,4,https://www.oslo.kommune.no/barnehage/finn-barnehage-i-oslo/seilduken-barnehage/,"Seilduksgata 32, 0553 OSLO",59.925777387439,10.763366746465,0.97,Seilduken barnehage,0.5286,https://barnehagefakta.no/barnehage/872172572/seilduken-barnehage-al
Grünerløkka,Sinsen Barnehage,20,6,https://www.oslo.kommune.no/barnehage/finn-barnehage-i-oslo/sinsen-barnehage/,"Båhusveien 46, 0585 OSLO",59.934170921115,10.785038267631,1.0,Sinsen barnehage,1.0000,https://barnehagefakta.no/barnehage/975291693/sinsen-barnehage
Grünerløkka,Sinsen kirkes barnehage,4,0,https://www.oslo.kommune.no/barnehage/finn-barnehage-i-oslo/sinsen-kirkes-barnehage/,"Lørenveien 13, 0585 OSLO",59.932007270117,10.787624278288,1.0,Sinsen kirkes barnehage,1.0000,https://barnehagefakta.no/barnehage/974703416/sinsen-kirkes-barnehage
Grünerløkka,Sjokoladefabrikken barnehage,14,1,https://www.oslo.kommune.no/barnehage/finn-barnehage-i-oslo/sjokoladefabrikken-barnehage/,"Sofienberggata 37, 0558 Oslo",59.921470637261,10.767735976631,1.0,Sjokoladefabrikken barnehage,1.0000,https://barnehagefakta.no/barnehage/992501774/sjokoladefabrikken-barnehage
Grünerløkka,Sofienbergparken barnehage,2,0,https://www.oslo.kommune.no/barnehage/finn-barnehage-i-oslo/sofienbergparken-og-krakeslottet-barnehage/,"Helgesens gate 63, 0558 OSLO",59.922325395718,10.768962230932,0.6721,Sofienbergparken og Kråkeslottet barnehage,0.6956,https://barnehagefakta.no/barnehage/975298191/sofienbergparken-barnehage
Grünerløkka,Sophies Hage barnehage,18,18,https://www.oslo.kommune.no/barnehage/finn-barnehage-i-oslo/sophies-hage-barnehage/,"Jørgen Løvlands gate 1 C-J, 0568 Oslo",59.927792372599,10.774637060305,1.0,Sophies Hage barnehage,1.0000,https://barnehagefakta.no/barnehage/994203584/sophies-hage-barnehage
Grünerløkka,Støperiet,24,0,https://www.oslo.kommune.no/barnehage/finn-barnehage-i-oslo/stoperiet-barnehage/,"Hasleveien 3, 0571 OSLO",59.927012889572,10.778373129346,0.97,Støperiet barnehage,0.5286,https://barnehagefakta.no/barnehage/997939042/stoperiet-barnehage
Grünerløkka,Teglverket barnehage,30,10,https://www.oslo.kommune.no/barnehage/finn-barnehage-i-oslo/teglverket-barnehage/,"Eikenga 2, 0579 Oslo",59.924153211372,10.797380314774,1.0,Teglverket barnehage,1.0000,https://barnehagefakta.no/barnehage/994173200/teglverket-barnehage
Grünerløkka,Waldemars Læringsverkstedet barnehage,4,0,https://www.oslo.kommune.no/barnehage/finn-barnehage-i-oslo/laringsverkstedet-waldemars-barnehage/,"Darres gate 26, 0175 OSLO",59.927801636981,10.75300646581,0.8289,Læringsverkstedet Waldemars barnehage,0.7553,https://barnehagefakta.no/barnehage/892775362/laringsverkstedet-waldemars-barnehage
Nordre Aker,Amigos Giraffen familiebarnehage,0,0,https://www.oslo.kommune.no/barnehage/finn-barnehage-i-oslo/amigos-giraffen-familiebarnehage/,"Bråtenalleen 10, 0487 OSLO",59.948637123708,10.78526110269,1.0,Amigos Giraffen familiebarnehage,1.0000,https://barnehagefakta.no/barnehage/997628306/amigos-giraffen-familiebarnehage
Nordre Aker,Amigos Småen familiebarnehage,0,0,https://www.oslo.kommune.no/barnehage/finn-barnehage-i-oslo/amigos-smaen-familiebarnehage/,"Bjerkealleen 50A, 0487 OSLO",59.949773969415,10.778894171918,1.0,Amigos Småen familiebarnehage,1.0000,https://barnehagefakta.no/barnehage/994464000/amigos-smaen-familiebarnehage
Nordre Aker,Badebakken barnehage,10,2,https://www.oslo.kommune.no/barnehage/finn-barnehage-i-oslo/badebakken-barnehage/,"Badebakken 28, 0467 OSLO",59.946206365002,10.762983697185,1.0,Badebakken barnehage,1.0000,https://barnehagefakta.no/barnehage/979592655/badebakken-barnehage
Nordre Aker,Bakkehaugen barnehage,8,2,https://www.oslo.kommune.no/barnehage/finn-barnehage-i-oslo/bakkehaugen-barnehage-sa/,"Einar Høigårds vei 25, 0871 OSLO",59.947171759649,10.755246731441,0.97,Bakkehaugen barnehage SA,0.8467,https://barnehagefakta.no/barnehage/974797127/bakkehaugen-barnehage-sa
Nordre Aker,Bamsebo SiO Barnehage,10,0,https://www.oslo.kommune.no/barnehage/finn-barnehage-i-oslo/bamsebo-sio-barnehage/,"Sem Sælands vei 4, 0371 OSLO",59.93692594408,10.719642282162,1.0,Bamsebo – SiO barnehage,1.0000,https://barnehagefakta.no/barnehage/930639664/bamsebo-sio-barnehage-as
Nordre Aker,Bergtunet barnehage,19,6,https://www.oslo.kommune.no/barnehage/finn-barnehage-i-oslo/bergtunet-barnehage/,"Bergsalléen 23, 0854 OSLO",59.948037488901,10.73829586194,1.0,Bergtunet barnehage,1.0000,https://barnehagefakta.no/barnehage/993898848/bergtunet-barnehage
Nordre Aker,Best barnehage,10,0,https://www.oslo.kommune.no/barnehage/finn-barnehage-i-oslo/best-barnehage/,"Lettvintveien 29, 0487 OSLO",59.944406788615,10.786591143405,1.0,Best barnehage,1.0000,https://barnehagefakta.no/barnehage/918049916/best-barnehage-as
Nordre Aker,Bjerkealleen Kanvas barnehage,8,1,https://www.oslo.kommune.no/barnehage/finn-barnehage-i-oslo/bjerkealleen-kanvas-barnehage/,"Bjerkealleen 21-23, 0487 OSLO",59.946391287006,10.781308934526,0.7676,Bjerkealléen Kanvas-barnehage,0.6710,https://barnehagefakta.no/barnehage/973076388/bjerkealleen-kanvas-barnehage
Nordre Aker,Blindern Barnestuer,16,7,https://www.oslo.kommune.no/barnehage/finn-barnehage-i-oslo/blindern-barnestuer/,"Moltke Moes vei 18-24, 0851 OSLO",59.940672866358,10.72638784247,1.0,Blindern Barnestuer,1.0000,https://barnehagefakta.no/barnehage/973278886/blindern-barnestuer-sa
Nordre Aker,Bråtenalleen barnehage,19,7,https://www.oslo.kommune.no/barnehage/finn-barnehage-i-oslo/bratenalleen-barnehage/,"Bråtenalléen 33, 0487 OSLO",59.9514895,10.7754813,0.708,Bråtenalléen barnehage,0.6125,https://barnehagefakta.no/barnehage/975297691/bratenalleen-barnehage
Nordre Aker,Bukken Bruse barnehage SA,3,0,https://www.oslo.kommune.no/barnehage/finn-barnehage-i-oslo/bukken-bruse-barnehage/,"Nygård terrasse 10, 0873 OSLO",59.951834922658,10.75848372411,0.97,Bukken Bruse barnehage,0.8774,https://barnehagefakta.no/barnehage/973390945/bukken-bruse-barnehage-sa
Nordre Aker,Damplassen barnehage,5,0,https://www.oslo.kommune.no/barnehage/finn-barnehage-i-oslo/damplassen-barnehage/,"Nils Lauritssøns vei 2a, 0854 OSLO",59.944153821282,10.734893382953,1.0,Damplassen barnehage,1.0000,https://barnehagefakta.no/barnehage/973457403/damplassen-barnehage
Nordre Aker,Disengrenda barnehage,10,1,https://www.oslo.kommune.no/barnehage/finn-barnehage-i-oslo/disengrenda-barnehage/,"Disengrenda 8, 0587 OSLO",59.943085296285,10.796598825975,1.0,Disengrenda barnehage,1.0000,https://barnehagefakta.no/barnehage/975297705/disengrenda-barnehage
Nordre Aker,Eikenøtten barnehage SA,3,2,https://www.oslo.kommune.no/barnehage/finn-barnehage-i-oslo/eikenotten-barnehage-sa/,"Tåsenveien 32, 0870 OSLO",59.944772836768,10.747330450574,1.0,Eikenøtten barnehage SA,1.0000,https://barnehagefakta.no/barnehage/973351273/eikenotten-barnehage
Nordre Aker,Eilert Sundt SiO barnehage,6,2,https://www.oslo.kommune.no/barnehage/finn-barnehage-i-oslo/eilert-sundt-sio-barnehage/,"Moltke Moes vei 33, 0314 OSLO",59.940586693181,10.72473653629,1.0,Eilert Sundt - SiO barnehage,1.0000,https://barnehagefakta.no/barnehage/930639354/eilert-sundt-sio-barnehage-as
Nordre Aker,Engebråten barnehage,14,11,https://www.oslo.kommune.no/barnehage/finn-barnehage-i-oslo/engebraten-barnehage/,"Neptunveien 28, 0493 OSLO",59.96084083849,10.776102254999,1.0,Engebråten barnehage,1.0000,https://barnehagefakta.no/barnehage/991773096/engebraten-barnehage
Nordre Aker,Eplehagen Kanvas-barnehage,7,0,https://www.oslo.kommune.no/barnehage/finn-barnehage-i-oslo/eplehagen-kanvas-barnehage/,"Gaustadveien 21B, 0372 OSLO",59.95503247437,10.721010246066,1.0,Eplehagen Kanvas-barnehage,1.0000,https://barnehagefakta.no/barnehage/975316947/eplehagen-kanvas-barnehage
Nordre Aker,Forskningsparken Montessori,6,1,https://www.oslo.kommune.no/barnehage/finn-barnehage-i-oslo/forskningsparken-montessori/,"Gaustadalleen 5, 0373 OSLO",59.940708,10.71613,1.0,Forskningsparken Montessori,1.0000,https://barnehagefakta.no/barnehage/972218480/forskningsparken-montessori-as
Nordre Aker,Gaustadsnippen barnehage,10,4,https://www.oslo.kommune.no/barnehage/finn-barnehage-i-oslo/gaustadsnippen-barnehage/,"Rolf E. Stenersens Allè 5, 0858 Oslo",59.952407641105,10.730501640937,1.0,Gaustadsnippen barnehage,1.0000,https://barnehagefakta.no/barnehage/975211908/gaustadsnippen-barnehage
Nordre Aker,Grefsen kirkes barnehage,4,1,https://www.oslo.kommune.no/barnehage/finn-barnehage-i-oslo/grefsen-kirkes-barnehage/,"Glads vei 47, 0489 Oslo",59.954788613701,10.77667373537,1.0,Grefsen kirkes barnehage,1.0000,https://barnehagefakta.no/barnehage/974294443/grefsen-kirkes-barnehage
Nordre Aker,Grefsenlyst 14 FUS barnehage,11,0,https://www.oslo.kommune.no/barnehage/finn-barnehage-i-oslo/grefsenlyst-14-fus-barnehage/,"Grefsenkollveien 14F, 0490 Oslo",59.953319461575,10.795630691563,1.0,Grefsenlyst 14 FUS barnehage,1.0000,https://barnehagefakta.no/barnehage/994708449/grefsenlyst-14-fus-barnehage-as
Nordre Aker,Grefsenlyst FUS barnehage,4,5,https://www.oslo.kommune.no/barnehage/finn-barnehage-i-oslo/grefsenlyst-fus-barnehage/,"Grefsenkollveien16D, 0490 Oslo",59.953319461575,10.795630691563,1.0,Grefsenlyst FUS barnehage,1.0000,https://barnehagefakta.no/barnehage/993156434/grefsenlyst-fus-barnehage-as
Nordre Aker,Grefsentunet barnehage,10,2,https://www.oslo.kommune.no/barnehage/finn-barnehage-i-oslo/grefsentunet-barnehage/,"Grefsentunet 1, 0488 Oslo",59.946628687155,10.788125125723,1.0,Grefsentunet barnehage,1.0000,https://barnehagefakta.no/barnehage/993898740/grefsentunet-barnehage
Nordre Aker,Gulldalen barnehage,10,0,https://www.oslo.kommune.no/barnehage/finn-barnehage-i-oslo/gulldalen-barnehage/,"Lachmanns vei 41, 0495 Oslo",59.965602207647,10.796582178835,1.0,Gulldalen barnehage,1.0000,https://barnehagefakta.no/barnehage/979592388/gulldalen-barnehage
Nordre Aker,Hakkebakkeskogen Familiebarnehage Daniel,4,0,https://www.oslo.kommune.no/barnehage/finn-barnehage-i-oslo/hakkebakkeskogen-familiebarnehage-daniel-walstads-vei/,"Daniel Walstads vei 9, 0493 Oslo",59.963365044566,10.780070741306,0.7691,Hakkebakkeskogen familiebarnehage (Daniel Walstads vei),0.7831,https://barnehagefakta.no/barnehage/990559643/hakkebakkeskogen-daniel-walstadsvei
Nordre Aker,Hakkebakkeskogen Familiebarnehage Kastanjeveien,2,0,https://www.oslo.kommune.no/barnehage/finn-barnehage-i-oslo/hakkebakkeskogen-familiebarnehage-kastanjeveien/,"Kastanjeveien 8B, 0487 Oslo",59.95169882652,10.782544624833,1.0,Hakkebakkeskogen familiebarnehage (Kastanjeveien),1.0000,https://barnehagefakta.no/barnehage/991734341/hakkebakkeskogen-kastanjeveien
Nordre Aker,Hakkebakkeskogen Familiebarnehage Kolderupsvei,1,0,https://www.oslo.kommune.no/barnehage/finn-barnehage-i-oslo/hakkebakkeskogen-familiebarnehage-kolderups-vei-5b/,"Kolderups vei 5B, 0587 Oslo",59.945124025968,10.791982748775,0.7396,Hakkebakkeskogen familiebarnehage (Kolderups vei 5b),0.7438,https://barnehagefakta.no/barnehage/887662592/hakkebakkeskogen-kolderupsvei
Nordre Aker,Hakkebakkeskogen Familiebarnehage Tåsenveien,2,0,https://www.oslo.kommune.no/barnehage/finn-barnehage-i-oslo/hakkebakkeskogen-familiebarnehage-tasenveien/,"Tåsenveien 113, 0880 Oslo",59.958297517099,10.760133639906,1.0,Hakkebakkeskogen familiebarnehage (Tåsenveien),1.0000,https://barnehagefakta.no/barnehage/984169868/hakkebakkeskogen-tasenveien
Nordre Aker,Hamborgplassen barnehage,6,3,https://www.oslo.kommune.no/barnehage/finn-barnehage-i-oslo/hamborgplassen-barnehage/,"Langmyrveien 16, 0874 Oslo",59.962477194574,10.75043201254,1.0,Hamborgplassen barnehage,1.0000,https://barnehagefakta.no/barnehage/973471708/hamborgplassen-barnehage
Nordre Aker,Haugensjordet barnehage,15,0,https://www.oslo.kommune.no/barnehage/finn-barnehage-i-oslo/haugensjordet-barnehage/,"Myrerveien 14, 0494 Oslo",59.961935850288,10.78746339301,1.0,Haugensjordet barnehage,1.0000,https://barnehagefakta.no/barnehage/975297845/haugensjordet-barnehage
Nordre Aker,Havnabakken,5,2,https://www.oslo.kommune.no/barnehage/finn-barnehage-i-oslo/havnabakken-barnehage/,"Havnabakken 46, 0874 Oslo",59.962605777089,10.7522479377,0.97,Havnabakken barnehage,0.5531,https://barnehagefakta.no/barnehage/974201844/havnabakken-barnehage-sa
Nordre Aker,Hompetitten Kanvas-barnehage,7,3,https://www.oslo.kommune.no/barnehage/finn-barnehage-i-oslo/hompetitten-kanvas-barnehage/,"Gaustadveien 21C, 0372 Oslo",59.954705862766,10.721261926342,1.0,Hompetitten Kanvas-barnehage,1.0000,https://barnehagefakta.no/barnehage/974716798/hompetitten-kanvas-barnehage
Nordre Aker,Kjelsås skole barnehage,19,8,https://www.oslo.kommune.no/barnehage/finn-barnehage-i-oslo/kjelsas-skole-barnehage/,"Asbjørnsens vei 3, 0494 OSLO",59.965443562826,10.785108621519,1.0,Kjelsås skole barnehage,1.0000,https://barnehagefakta.no/barnehage/991773002/kjelsas-skole-barnehage
Nordre Aker,Klossen SiO barnehage AS,7,6,https://www.oslo.kommune.no/barnehage/finn-barnehage-i-oslo/klossen-sio-barnehage/,"Olav M. Troviks vei 32, 0864 OSLO",59.964278133077,10.728959629822,0.97,Klossen - SiO barnehage,0.8758,https://barnehagefakta.no/barnehage/930639451/klossen-sio-barnehage-as
Nordre Aker,Korsvollhallen,8,0,https://www.oslo.kommune.no/barnehage/finn-barnehage-i-oslo/korsvollhallen-barnehage/,"Åmotveien 9, 0880 Oslo",59.96102080695,10.756931888633,0.97,Korsvollhallen barnehage,0.6803,https://barnehagefakta.no/barnehage/930980102/korsvollhallen-barnehage
Nordre Aker,Langmyrgrenda bhg,11,0,https://www.oslo.kommune.no/barnehage/finn-barnehage-i-oslo/langmyrgrenda-barnehage/,"Peder Ankers vei 20, 0861 OSLO",59.964498347625,10.749051858338,1.0,Langmyrgrenda barnehage,1.0000,https://barnehagefakta.no/barnehage/975291499/langmyrgrenda-barnehage
Nordre Aker,Lille Bamsebo SiO Barnehage,6,0,https://www.oslo.kommune.no/barnehage/finn-barnehage-i-oslo/lille-bamsebo-sio-barnehage/,"Apalveien 21, 0371 OSLO",59.935748894211,10.716991547602,1.0,Lille-Bamsebo - SiO barnehage,1.0000,https://barnehagefakta.no/barnehage/930639818/lille-bamsebo-sio-barnehage-as
Nordre Aker,Læringsverkstedet Grefsen Terrasse naturbarnehage,12,0,https://www.oslo.kommune.no/barnehage/finn-barnehage-i-oslo/laringsverkstedet-grefsen-terrasse-barnehage/,"Grefsenkollveien 12 A, 0490 OSLO",59.954080994985,10.796099895136,0.8258,Læringsverkstedet Grefsen terrasse barnehage,0.8311,https://barnehagefakta.no/barnehage/996113639/laringsverkstedet-grefsen-terrasse-naturbarnehage
Nordre Aker,Maridalen barnehage,2,2,https://www.oslo.kommune.no/barnehage/finn-barnehage-i-oslo/maridalen-barnehage/,"Kasaveien 1, 0890 OSLO",60.005159467445,10.773115819288,1.0,Maridalen barnehage,1.0000,https://barnehagefakta.no/barnehage/972734721/maridalen-barnehage-sa
Nordre Aker,Montessoribarnehagen Solsikken Maristova,7,0,https://www.oslo.kommune.no/barnehage/finn-barnehage-i-oslo/montessoribarnehagen-solsikken-maristova/,"Maridalsveien 254, 0862 OSLO",59.946075735563,10.759986890182,1.0,Montessoribarnehagen Solsikken Maristova,1.0000,https://barnehagefakta.no/barnehage/887723192/montesorribarnehagen-solsikken-maristova
Nordre Aker,Montessoribarnehagen Solsikken Sognestuen,8,3,https://www.oslo.kommune.no/barnehage/finn-barnehage-i-oslo/montessoribarnehagen-solsikken-sognestuen/,"Folke Bernadottes vei 2, 0874 OSLO",59.964031354521,10.737491253978,1.0,Montessoribarnehagen Solsikken Sognestuen,1.0000,https://barnehagefakta.no/barnehage/987723165/montessoribarnehagen-solsikken-sognestuen
Nordre Aker,Myrer Kanvasbarnehage,8,4,https://www.oslo.kommune.no/barnehage/finn-barnehage-i-oslo/myrer-kanvas-barnehage/,"Nordstjerneveien 4, 0494 OSLO",59.961127616835,10.789443865799,0.7224,Myrer Kanvas-barnehage,0.7247,https://barnehagefakta.no/barnehage/975016579/myrer-kanvas-barnehage
Nordre Aker,Nordberg barnehage,19,4,https://www.oslo.kommune.no/barnehage/finn-barnehage-i-oslo/nordberg-barnehage/,"Carl Kjelsens vei 23A, 0860 Oslo",59.960950523825,10.744315332972,1.0,Nordberg barnehage,1.0000,https://barnehagefakta.no/barnehage/974726742/nordberg-barnehage
Nordre Aker,Nordberg menighets barnehage,6,0,https://www.oslo.kommune.no/barnehage/finn-barnehage-i-oslo/nordberg-menighets-barnehage/,"Kringsjågrenda 1, 0861 Oslo",59.963200012638,10.742642352935,1.0,Nordberg menighets barnehage,1.0000,https://barnehagefakta.no/barnehage/974702843/nordberg-menighetsbarnehage
Nordre Aker,Nordre Åsen Kanvas-barnehage,2,10,https://www.oslo.kommune.no/barnehage/finn-barnehage-i-oslo/nordre-asen-kanvas-barnehage/,"Åsensvingen 1D, 0488 Oslo",59.940857490429,10.78405517093,1.0,Nordre Åsen Kanvas-barnehage,1.0000,https://barnehagefakta.no/barnehage/975016587/nordre-asen-kanvas-barnehage
Nordre Aker,Norlandia Eventyrstua barnehage,10,0,https://www.oslo.kommune.no/barnehage/finn-barnehage-i-oslo/norlandia-eventyrstua-barnehage/,"Gunnar schjelderups vei 11G, 0485 Oslo",59.949393954873,10.774433297598,1.0,Norlandia Eventyrstua barnehage,1.0000,https://barnehagefakta.no/barnehage/991743944/norlandia-eventyrstua-barnehage
Nordre Aker,Norlandia Gaustadskogen barnehage,10,15,https://www.oslo.kommune.no/barnehage/finn-barnehage-i-oslo/norlandia-gaustadskogen-barnehage/,"Gaustadveien 6G, 0372 Oslo",59.954797618088,10.717667193774,1.0,Norlandia Gaustadskogen barnehage,1.0000,https://barnehagefakta.no/barnehage/990551111/norlandia-gaustadskogen-barnehage
Nordre Aker,Norlandia Myrertoppen barnehage,13,4,https://www.oslo.kommune.no/barnehage/finn-barnehage-i-oslo/norlandia-myrertoppen-barnehage/,"Myrerskogveien 38, 0495 Oslo",59.964060126572,10.793740016178,1.0,Norlandia Myrertoppen barnehage,1.0000,https://barnehagefakta.no/barnehage/979592485/norlandia-myrertoppen-barnehage
Nordre Aker,Nydalen Barnehage,7,0,https://www.oslo.kommune.no/barnehage/finn-barnehage-i-oslo/nydalen-barnehage/,"Maridalsveien 292, 0872 Oslo",59.952806577794,10.760379631562,1.0,Nydalen barnehage,1.0000,https://barnehagefakta.no/barnehage/973457292/nydalen-barnehage-sa
Nordre Aker,Rektorhaugen Kanvas-barnehage,22,1,https://www.oslo.kommune.no/barnehage/finn-barnehage-i-oslo/rektorhaugen-kanvas-barnehage/,"Nils Bays vei 50B, 0876 OSLO",59.952263267652,10.738361395903,1.0,Rektorhaugen Kanvas-barnehage,1.0000,https://barnehagefakta.no/barnehage/975016595/rektorhaugen-kanvas-barnehage
Nordre Aker,Sanatoriet,13,0,https://www.oslo.kommune.no/barnehage/finn-barnehage-i-oslo/sanatoriet-barnehage/,"Kjelsåsveien 51, 0488 OSLO",59.949379,10.793082,0.97,Sanatoriet barnehage,0.5417,https://barnehagefakta.no/barnehage/988532665/sanatoriet-barnehage
Nordre Aker,SiO Almelia barnehage,8,5,https://www.oslo.kommune.no/barnehage/finn-barnehage-i-oslo/almelia-sio-barnehage/,"Jon P. Erliens vei 18, 0858 OSLO",59.951547919702,10.730606341393,0.8762,Almelia – SiO barnehage,0.7952,https://barnehagefakta.no/barnehage/930640220/almelia-sio-barnehage-as
Nordre Aker,SiO Barnehage Frydenhaug,9,3,https://www.oslo.kommune.no/barnehage/finn-barnehage-i-oslo/frydenhaug-sio-barnehage/,"Sognsveien 165, 0860 OSLO",59.962941689061,10.734299515242,0.7021,Frydenhaug - SiO barnehage,0.6479,https://barnehagefakta.no/barnehage/930639699/frydenhaug-sio-barnehage-as
Nordre Aker,Skogly - SIO Barnehage AS,10,2,https://www.oslo.kommune.no/barnehage/finn-barnehage-i-oslo/skogly-sio-barnehage/,"Olav M. Troviks vei 16, 0864 OSLO",59.964691165322,10.731023274304,1.0,Skogly - SiO barnehage AS,1.0000,https://barnehagefakta.no/barnehage/930640190/skogly-sio-barnehage-as
Nordre Aker,Sognsveien barnehage,21,7,https://www.oslo.kommune.no/barnehage/finn-barnehage-i-oslo/sognsveien-barnehage/,"Sognsveien 13, 0851 OSLO",59.939932842487,10.730770654052,1.0,Sognsveien barnehage,1.0000,https://barnehagefakta.no/barnehage/991189874/sognsveien-barnehage
Nordre Aker,Solemskogen Naturbarnehage,5,2,https://www.oslo.kommune.no/barnehage/finn-barnehage-i-oslo/solemskogen-naturbarnehage/,"Solemskogveien 3, 0496 OSLO",59.978380091566,10.814514635505,1.0,Solemskogen naturbarnehage,1.0000,https://barnehagefakta.no/barnehage/873480882/solemskogen-naturbarnehage-sa
Nordre Aker,Stilla Barnehage,6,3,https://www.oslo.kommune.no/barnehage/finn-barnehage-i-oslo/stilla-barnehage/,"Kjelsåsveien 156C, 0491 OSLO",59.965579363918,10.77904307074,1.0,Stilla barnehage,1.0000,https://barnehagefakta.no/barnehage/973457675/stilla-barnehage
Nordre Aker,Tåsen barnehage,15,13,https://www.oslo.kommune.no/barnehage/finn-barnehage-i-oslo/tasen-barnehage/,"Pastor Fangens vei 22B, 0854 Oslo",59.945675509903,10.742778650479,1.0,Tåsen barnehage,1.0000,https://barnehagefakta.no/barnehage/975316629/tasen-barnehage
Nordre Aker,Tåsenløkka,11,7,https://www.oslo.kommune.no/barnehage/finn-barnehage-i-oslo/tasenlokka-barnehage/,"Claus Borchs vei 19-23, 0853 Oslo",59.943511619125,10.747144130252,0.97,Tåsenløkka barnehage,0.5417,https://barnehagefakta.no/barnehage/814400352/tasenlokka-barnehage
Nordre Aker,Ullevålsletta barnehage,4,1,https://www.oslo.kommune.no/barnehage/finn-barnehage-i-oslo/ullevalsletta-barnehage/,"Nils Bays vei 90, 0855 OSLO",59.950732778898,10.733178083925,1.0,Ullevålsletta barnehage,1.0000,https://barnehagefakta.no/barnehage/973390953/stiftelsen-ullevalsletta-barnehage
Nordre Aker,Ulna Andromeda friluftsbarnehage AS,11,0,https://www.oslo.kommune.no/barnehage/finn-barnehage-i-oslo/andromeda-barnehage/,"Langåsveien 24, 0880 OSLO",59.962041607415,10.756176690528,1.0,Andromeda barnehage,0.4570,https://barnehagefakta.no/barnehage/990535051/andromeda-barnehage
Nordre Aker,Universitetets barnehage,14,14,https://www.oslo.kommune.no/barnehage/finn-barnehage-i-oslo/universitetets-barnehage/,"Gaustadalleen 7, 0373 OSLO",59.941078196872,10.715283740886,1.0,Universitetets barnehage,1.0000,https://barnehagefakta.no/barnehage/975314960/universitetets-barnehage
Nordre Aker,Veslehaugen familiebarnehage,2,2,https://www.oslo.kommune.no/barnehage/finn-barnehage-i-oslo/veslehaugen-familiebarnehage/,"Rolf Wickstrøms vei 2, 0873 OSLO",59.952749,10.752665,1.0,Veslehaugen familiebarnehage,1.0000,https://barnehagefakta.no/barnehage/988599174/veslehaugen-familiebarnehage-b-bjorskau
Nordre Aker,Voldsløkka barnehage og Voldsløkka barnehage for,5,0,https://www.oslo.kommune.no/barnehage/finn-barnehage-i-oslo/voldslokka-barnehage/,"Uelands gate 78, 0462 OSLO",59.941282806889,10.749284137832,1.0,Voldsløkka barnehage,0.5985,https://barnehagefakta.no/barnehage/974591081/voldslokka-barnehage-for-horselshemmede
Nordstrand,bakketoppen barnehage,12,0,https://www.oslo.kommune.no/barnehage/finn-barnehage-i-oslo/bakketoppen-barnehage/,"Bakketoppen 21A, 1165 OSLO",59.85302103973,10.81079036159,1.0,Bakketoppen barnehage,1.0000,https://barnehagefakta.no/barnehage/988446130/bakketoppen-barnehage
Nordstrand,Bauneveien barnehage,18,6,https://www.oslo.kommune.no/barnehage/finn-barnehage-i-oslo/bauneveien-barnehage/,"Bauneveien 47, 1182 OSLO",59.891220030623,10.797014686635,1.0,Bauneveien barnehage,1.0000,https://barnehagefakta.no/barnehage/975316033/bauneveien-barnehage
Nordstrand,Bekkelaget familiebarnehage,2,0,https://www.oslo.kommune.no/barnehage/finn-barnehage-i-oslo/bekkelaget-familiebarnehage/,"Bekkelagsveien 18E, 1177 OSLO",59.882949308656,10.775053151232,1.0,Bekkelaget familiebarnehage,1.0000,https://barnehagefakta.no/barnehage/931394533/bekkelaget-familiebarnehage-kristoffersen
Nordstrand,Bekkelaget kirkes barnehage,9,2,https://www.oslo.kommune.no/barnehage/finn-barnehage-i-oslo/bekkelaget-kirkes-barnehage/,"Sandstuveien 18, 1178 OSLO",59.886341432317,10.786564526267,1.0,Bekkelaget Kirkes barnehage,1.0000,https://barnehagefakta.no/barnehage/974796732/bekkelaget-kirkes-barnehage
Nordstrand,Brattvoll familiebarnehage,0,0,https://www.oslo.kommune.no/barnehage/finn-barnehage-i-oslo/brattvoll-familiebarnehage/,"Brattvollveien 13, 1164 OSLO",59.857827118364,10.813337176873,1.0,Brattvoll familiebarnehage,1.0000,https://barnehagefakta.no/barnehage/994233742/bitteliten-brattvoll-familiebarnehage-as
Nordstrand,Brumlebassen Barnehage,6,3,https://www.oslo.kommune.no/barnehage/finn-barnehage-i-oslo/brumlebassen-barnehage-as/,"Simensbråtveien 25 B, 1182 OSLO",59.898967467021,10.795967245601,1.0,Brumlebassen barnehage,1.0000,https://barnehagefakta.no/barnehage/888056882/brumlebassen-barnehage-as
Nordstrand,Bråten barnehage,12,0,https://www.oslo.kommune.no/barnehage/finn-barnehage-i-oslo/braten-barnehage-sa/,"Seterliveien 5, 1162 OSLO",59.866452738622,10.792105960878,0.97,Bråten barnehage SA,0.8362,https://barnehagefakta.no/barnehage/973494724/braten-barnehage-sa
Nordstrand,Christiania Barnehave Nordstrand,10,4,https://www.oslo.kommune.no/barnehage/finn-barnehage-i-oslo/christiania-barnehave-nordstrand/,"Bernt Knudsens vei 15, 1176 OSLO",59.87755,10.802118,1.0,Christiania Barnehave Nordstrand,1.0000,https://barnehagefakta.no/barnehage/976128710/christiania-barnehave-nordstrand-as
Nordstrand,De ni musene familiebarnehage avd Ekeberg,6,0,https://www.oslo.kommune.no/barnehage/finn-barnehage-i-oslo/de-ni-musene-familiebarnehage-avd-ekeberg/,"Jonsokveien 6, 1182 Oslo",59.894341331875,10.792714364819,1.0,De ni musene familiebarnehage avd.Ekeberg,1.0000,https://barnehagefakta.no/barnehage/913343174/de-ni-musene-as-avd-ekeberg
Nordstrand,Den Blå Appelsin Kanvas- barnehage,7,11,https://www.oslo.kommune.no/barnehage/finn-barnehage-i-oslo/den-bla-appelsin/,"Lambertseterveien 9, 1160 OSLO",59.871214295281,10.799257463438,1.0,Den blå appelsin Kanvas-barnehage,1.0000,https://barnehagefakta.no/barnehage/989946056/den-bla-appelsin-kanvas-barnehage
Nordstrand,Eplekneika barnehage sa,5,0,https://www.oslo.kommune.no/barnehage/finn-barnehage-i-oslo/eplekneika-barnehage/,"Åsdalsveien 13B, 1166 OSLO",59.85835283965,10.793313008331,0.97,Eplekneika barnehage,0.8450,https://barnehagefakta.no/barnehage/973342355/eplekneika-barnehage-sa
Nordstrand,Fiskevollen musikkbarnehage,4,2,https://www.oslo.kommune.no/barnehage/finn-barnehage-i-oslo/fiskevollen-musikkbarnehage/,"Herregårdsveien 67, 1168 OSLO",59.842875576929,10.777559345001,1.0,Fiskevollen musikkbarnehage,1.0000,https://barnehagefakta.no/barnehage/992661135/fiskevollen-musikkbarnehage
Nordstrand,Frierveien barnehage,11,0,https://www.oslo.kommune.no/barnehage/finn-barnehage-i-oslo/frierveien-barnehage/,"Frierveien 18, 1179 OSLO",59.888734947044,10.775074037343,1.0,Frierveien barnehage,1.0000,https://barnehagefakta.no/barnehage/894393122/frierveien-barnehage
Nordstrand,Karlsrud familiebarnehage,3,0,https://www.oslo.kommune.no/barnehage/finn-barnehage-i-oslo/karlsrud-familiebarnehage/,"Bernt Knudsens vei 10 B, 1176 OSLO",59.878254625049,10.801978582287,1.0,Karlsrud familiebarnehage,1.0000,https://barnehagefakta.no/barnehage/990656568/bitteliten-karlsrud-familiebarnehage-as
Nordstrand,Kastellterrassen Kanvas-barnehage,6,4,https://www.oslo.kommune.no/barnehage/finn-barnehage-i-oslo/kastellterrassen-kanvas-barnehage/,"Nordseter terrasse 33, 1163 OSLO",59.8671115279,10.801750687757,1.0,Kastellterrassen Kanvas-barnehage,1.0000,https://barnehagefakta.no/barnehage/975016552/kastellterrassen-kanvas-barnehage
Nordstrand,Knausen,24,11,https://www.oslo.kommune.no/barnehage/finn-barnehage-i-oslo/knausen-barnehage/,"Radarveien 77B, 1152 OSLO",59.876508401333,10.806189809353,0.97,Knausen barnehage,0.4958,https://barnehagefakta.no/barnehage/975291472/knausen-barnehage
Nordstrand,Kongsveien Barnehage as,17,12,https://www.oslo.kommune.no/barnehage/finn-barnehage-i-oslo/kongsveien-barnehage/,"Kongsveien 49, 1177 OSLO",59.885640969352,10.77392788523,0.97,Kongsveien Barnehage,0.8450,https://barnehagefakta.no/barnehage/973469517/kongsveien-barnehage-as
Nordstrand,Lille Ekeberg barnehage,20,9,https://www.oslo.kommune.no/barnehage/finn-barnehage-i-oslo/lille-ekeberg-barnehage/,"Barnehjemsveien 2, 1181 OSLO",59.8982037461,10.786075353204,1.0,Lille Ekeberg barnehage,1.0000,https://barnehagefakta.no/barnehage/975291510/lille-ekeberg-barnehage
Nordstrand,Lille venn familiebarnehage,1,0,https://www.oslo.kommune.no/barnehage/finn-barnehage-i-oslo/lille-venn-familiebarnehage/,"Steinliveien 8, 1185 OSLO",59.883907602529,10.80696664045,1.0,Lille Venn familiebarnehage,1.0000,https://barnehagefakta.no/barnehage/998639476/lille-venn-familiebarnehage
Nordstrand,Ljabru Gård Steinerbarnehage,11,7,https://www.oslo.kommune.no/barnehage/finn-barnehage-i-oslo/ljabru-gard-steinerbarnehage/,"Ljabruveien 90, 1266 OSLO",59.849556887755,10.803390026589,1.0,Ljabru Gård Steinerbarnehage,1.0000,https://barnehagefakta.no/barnehage/989482181/stiftelsen-ljabru-gard-steinerbarnehage
Nordstrand,Ljan kirkes barnehage,6,0,https://www.oslo.kommune.no/barnehage/finn-barnehage-i-oslo/ljan-kirkes-barnehage/,"Furumoen 18 A, 1168 OSLO",59.845824,10.785016,1.0,Ljan kirkes barnehage,1.0000,https://barnehagefakta.no/barnehage/974703009/ljan-kirkes-barnehage
Nordstrand,Læringsverkstedet Langbølgen barnehage AS,16,0,https://www.oslo.kommune.no/barnehage/finn-barnehage-i-oslo/laringsverkstedet-langbolgen-barnehage/,"Mikrobølgen 25, 1150 OSLO",59.867529182027,10.813072394777,0.97,Læringsverkstedet Langbølgen barnehage,0.8921,https://barnehagefakta.no/barnehage/818072872/laringsverkstedet-langbolgen-barnehage
Nordstrand,"Læringsverkstedet, Ekeberg Idrettsbarnehage AS",18,2,https://www.oslo.kommune.no/barnehage/finn-barnehage-i-oslo/ekeberg-idrettsbarnehage/,"Ekebergveien 101, 1178 OSLO",59.891635294515,10.778322798646,1.0,Ekeberg idrettsbarnehage,0.5521,https://barnehagefakta.no/barnehage/994919318/laringsverkstedet-ekeberg-idrettsbarnehage
Nordstrand,Malmøya barnehage,5,1,https://www.oslo.kommune.no/barnehage/finn-barnehage-i-oslo/malmoya-barnehage/,"Høyboveien 11A, 0198 OSLO",59.871075899751,10.756950060884,1.0,Malmøya barnehage,1.0000,https://barnehagefakta.no/barnehage/974714728/malmoya-husmorlag
Nordstrand,Marmorberget,12,14,https://www.oslo.kommune.no/barnehage/finn-barnehage-i-oslo/marmorberget-barnehage/,"Feltspatveien 16, 1155 OSLO",59.874162994127,10.819979378011,0.97,Marmorberget barnehage,0.6632,https://barnehagefakta.no/barnehage/975291553/marmorberget-barnehage
Nordstrand,Mellombølgen bhg,33,0,https://www.oslo.kommune.no/barnehage/finn-barnehage-i-oslo/mellombolgen-barnehage/,"Mellombølgen 133, 1157 OSLO",59.865770296704,10.817002392251,1.0,Mellombølgen barnehage,1.0000,https://barnehagefakta.no/barnehage/975291626/mellombolgen-barnehage
Nordstrand,Merkur familiebarnehage,1,0,https://www.oslo.kommune.no/barnehage/finn-barnehage-i-oslo/merkur-familiebarnehage/,"Oberst Rodes vei 27B, 1152 OSLO",59.873438796325,10.805380158433,1.0,Merkur familiebarnehage,1.0000,https://barnehagefakta.no/barnehage/988509647/bitteliten-merkur-familiebarnehage-as
Nordstrand,Munkelia,6,0,https://www.oslo.kommune.no/barnehage/finn-barnehage-i-oslo/munkelia-barnehage/,"Langbølgen 67, 1151 Oslo",59.86413934036,10.81412731798,0.97,Munkelia barnehage,0.5135,https://barnehagefakta.no/barnehage/975291561/munkelia-barnehage
Nordstrand,Munkerud miljøbarnehage,15,2,https://www.oslo.kommune.no/barnehage/finn-barnehage-i-oslo/munkerud-miljobarnehage/,"P. A. Holms vei 18, 1164 OSLO",59.858549,10.813519,1.0,Munkerud miljøbarnehage,1.0000,https://barnehagefakta.no/barnehage/921755570/munkerud-miljobarnehage
Nordstrand,Munkerudsletta Bhg,11,0,https://www.oslo.kommune.no/barnehage/finn-barnehage-i-oslo/munkerudsletta-barnehage/,"Brattvollveien 219, 1164 OSLO",59.853160752115,10.816296896279,1.0,Munkerudsletta barnehage,1.0000,https://barnehagefakta.no/barnehage/975298051/munkerudsletta-barnehage
Nordstrand,Munkerudtoppen barnehAGE,3,2,https://www.oslo.kommune.no/barnehage/finn-barnehage-i-oslo/munkerudtoppen/,"Nordstrandveien 77, 1164 OSLO",59.860082417388,10.813924235687,1.0,Munkerudtoppen barnehage,1.0000,https://barnehagefakta.no/barnehage/975941183/munkerudtoppen-barnehage
Nordstrand,Nedre Bekkelaget barnehage,9,6,https://www.oslo.kommune.no/barnehage/finn-barnehage-i-oslo/nedre-bekkelaget-barnehage/,"Grønsundveien 15, 0198 Oslo",59.879476354105,10.767756634075,1.0,Nedre Bekkelaget barnehage,1.0000,https://barnehagefakta.no/barnehage/975016757/nedre-bekkelaget-barnehage
Nordstrand,Nordseter barnehage,9,4,https://www.oslo.kommune.no/barnehage/finn-barnehage-i-oslo/nordseter-barnehage/,"Pearl Engens vei 1, 1161 Oslo",59.870388057482,10.7959617758,1.0,Nordseter barnehage,1.0000,https://barnehagefakta.no/barnehage/975316009/nordseter-barnehage
Nordstrand,Nordstrand kirkes barnehage,9,2,https://www.oslo.kommune.no/barnehage/finn-barnehage-i-oslo/nordstrand-kirkes-barnehage/,"Breiensvei 2, 1166 Oslo",59.858972,10.809004,1.0,Nordstrand kirkes barnehage,1.0000,https://barnehagefakta.no/barnehage/973479881/nordstrand-kirkes-barnehage
Nordstrand,Nylænde barnehage,12,2,https://www.oslo.kommune.no/barnehage/finn-barnehage-i-oslo/nylande-barnehage/,"Gina Krogs vei 10, 1153 Oslo",59.878066842404,10.814350276492,1.0,Nylænde barnehage,1.0000,https://barnehagefakta.no/barnehage/975291596/nylande-barnehage
Nordstrand,Obersten barnehage,11,6,https://www.oslo.kommune.no/barnehage/finn-barnehage-i-oslo/obersten-barnehage/,"Oberst Rodes vei 83, 1165 Oslo",59.862797144291,10.808535826295,1.0,Obersten barnehage,1.0000,https://barnehagefakta.no/barnehage/975316017/obersten-barnehage
Nordstrand,Ole Brumm,5,0,https://www.oslo.kommune.no/barnehage/finn-barnehage-i-oslo/ole-brumm-barnehage/,"Ole Brumms vei 11, 0979 Oslo",59.951747813814,10.909469489081,0.97,Ole Brumm barnehage,0.5869,https://barnehagefakta.no/barnehage/975298078/ole-brumm-barnehage
Nordstrand,Plutti Plott Familiebarnehage,4,0,https://www.oslo.kommune.no/barnehage/finn-barnehage-i-oslo/plutti-plott-familiebarnehage/,"Oberst Rodes vei 90E, 1150 OSLO",59.860806370015,10.810267093264,1.0,Plutti Plott familiebarnehage,1.0000,https://barnehagefakta.no/barnehage/888774122/plutti-plott-familiebarnehage
Nordstrand,Radarveien barnehage,7,0,https://www.oslo.kommune.no/barnehage/finn-barnehage-i-oslo/radarveien-barnehage/,"Radarveien 92, 1154 OSLO",59.871193334634,10.810683507142,1.0,Radarveien barnehage,1.0000,https://barnehagefakta.no/barnehage/996741389/radarveien-barnehage
Nordstrand,Radiohuset barnehage,9,1,https://www.oslo.kommune.no/barnehage/finn-barnehage-i-oslo/radiohuset-barnehage/,"Feltspatveien 15, 1154 OSLO",59.873052,10.817511,1.0,Radiohuset barnehage,1.0000,https://barnehagefakta.no/barnehage/994393103/radiohuset-barnehage
Nordstrand,Rosenhagen barnehage,23,7,https://www.oslo.kommune.no/barnehage/finn-barnehage-i-oslo/rosenhagen-barnehage/,"Rosendalsveien 31, 1166 OSLO",59.855648202034,10.797745442216,1.0,Rosenhagen barnehage,1.0000,https://barnehagefakta.no/barnehage/990102848/rosenhagen-barnehage
Nordstrand,Rygin,5,4,https://www.oslo.kommune.no/barnehage/finn-barnehage-i-oslo/rygin-barnehage/,"Solfjellshøgda 28, 0677 OSLO",59.899321623079,10.799633565023,0.97,Rygin barnehage,0.4500,https://barnehagefakta.no/barnehage/975316041/rygin-barnehage
Nordstrand,Saturn familiebarnehage,1,0,https://www.oslo.kommune.no/barnehage/finn-barnehage-i-oslo/saturn-familiebarnehage/,"Granveien 19A, 1178 OSLO",59.881616909433,10.79319043019,1.0,Saturn familiebarnehage,1.0000,https://barnehagefakta.no/barnehage/893150412/saturn-familiebarnehager
Nordstrand,Sjøutsikten Familiebarnehage,2,0,https://www.oslo.kommune.no/barnehage/finn-barnehage-i-oslo/sjoutsikten-familiebarnehage/,"Ljabruveien 31A, 1169 OSLO",59.855798545782,10.785640711419,1.0,Sjøutsikten familiebarnehage,1.0000,https://barnehagefakta.no/barnehage/913473000/sjoutsikten-familiebarnehage-hernandez-lillebekk
Nordstrand,Skovheim Kanvas-barnehage,12,4,https://www.oslo.kommune.no/barnehage/finn-barnehage-i-oslo/skovheim-kanvas-barnehage/,"Lindbäckveien 55, 1163 OSLO",59.865105316662,10.797391464252,1.0,Skovheim Kanvas barnehage,1.0000,https://barnehagefakta.no/barnehage/973107690/skovheim-kanvas-barnehage
Nordstrand,Skreddern barnehage,13,1,https://www.oslo.kommune.no/barnehage/finn-barnehage-i-oslo/skredder-n-barnehage/,"Åsdalsveien 55, 1167 OSLO",59.850785425385,10.791691805721,0.7208,Skredder'n barnehage,0.6234,https://barnehagefakta.no/barnehage/975016617/skredderstua-barnehage
Nordstrand,Skredderstua barnehage,8,4,https://www.oslo.kommune.no/barnehage/finn-barnehage-i-oslo/skredderstua-barnehage/,"Åsdalsveien 55, 1167 Oslo",59.850785425385,10.791691805721,1.0,Skredderstua barnehage,1.0000,https://barnehagefakta.no/barnehage/975016617/skredderstua-barnehage
